{"objects":[{"address":"","sport":[{"sportAreaID":0,"sportType":{"id":1000001,"title":"Shooting"},"sportAreaType":"Стрельба по тарелочкам","square":20,"sportArea":"Стрельба по тарелочкам"}],"id":1000001,"availabilityType":"Шаговая доступность","title":"Стрельба по тарелочкам","department":{"id":404404,"title":"Вне департамента"},"coordinate":{"longitude":37.200470099999997,"latitude":55.626160800000001}},{"address":"","sport":[{"sportAreaID":0,"sportType":{"id":1000002,"title":"Athletics"},"sportAreaType":"Сильные Люди","square":20,"sportArea":"Сильные Люди"},{"sportAreaID":0,"sportType":{"id":1000002,"title":"Fitness"},"sportAreaType":"Сильные Люди","square":20,"sportArea":"Сильные Люди"},{"sportAreaID":0,"sportType":{"id":1000002,"title":"Gymnastics"},"sportAreaType":"Сильные Люди","square":20,"sportArea":"Сильные Люди"}],"id":1000002,"availabilityType":"Шаговая доступность","title":"Сильные Люди","department":{"id":404404,"title":"Вне департамента"},"coordinate":{"longitude":40.6750732,"latitude":55.616623599999997}},{"address":"","sport":[{"sportAreaID":0,"sportType":{"id":1000003,"title":"Athletics"},"sportAreaType":"Юник","square":20,"sportArea":"Юник"}],"id":1000003,"availabilityType":"Шаговая доступность","title":"Юник","department":{"id":404404,"title":"Вне департамента"},"coordinate":{"longitude":37.968638499999997,"latitude":55.615826300000002}},{"address":"","sport":[{"sportAreaID":0,"sportType":{"id":1000005,"title":"Table tennis"},"sportAreaType":"Pitch","square":20,"sportArea":"Pitch"}],"id":1000005,"availabilityType":"Шаговая доступность","title":"Pitch","department":{"id":404404,"title":"Вне департамента"},"coordinate":{"longitude":37.696641700000001,"latitude":55.625823599999997}},{"address":"","sport":[{"sportAreaID":0,"sportType":{"id":1000006,"title":"Fitness"},"sportAreaType":"Альфа-фитнес","square":20,"sportArea":"Альфа-фитнес"}],"id":1000006,"availabilityType":"Шаговая доступность","title":"Альфа-фитнес","department":{"id":404404,"title":"Вне департамента"},"coordinate":{"longitude":37.709284599999997,"latitude":55.624677499999997}},{"address":"","sport":[{"sportAreaID":0,"sportType":{"id":1000014,"title":"Fitness"},"sportAreaType":"Титаниум","square":20,"sportArea":"Титаниум"}],"id":1000014,"availabilityType":"Шаговая доступность","title":"Титаниум","department":{"id":404404,"title":"Вне департамента"},"coordinate":{"longitude":37.601854400000001,"latitude":55.623128299999998}},{"address":"","sport":[{"sportAreaID":0,"sportType":{"id":1000015,"title":"Fitness"},"sportAreaType":"Fitness-On","square":20,"sportArea":"Fitness-On"}],"id":1000015,"availabilityType":"Шаговая доступность","title":"Fitness-On","department":{"id":404404,"title":"Вне департамента"},"coordinate":{"longitude":37.011663499999997,"latitude":55.629344500000002}},{"address":"","sport":[{"sportAreaID":0,"sportType":{"id":1000016,"title":"Boxing"},"sportAreaType":"Клуб единоборств \"МАРС\"","square":20,"sportArea":"Клуб единоборств \"МАРС\""}],"id":1000016,"availabilityType":"Шаговая доступность","title":"Клуб единоборств \"МАРС\"","department":{"id":404404,"title":"Вне департамента"},"coordinate":{"longitude":38.070232500000003,"latitude":55.625659900000002}},{"address":"","sport":[{"sportAreaID":0,"sportType":{"id":1000018,"title":"Judo"},"sportAreaType":"Клуб борьбы дзюдо имени Александра Невского","square":20,"sportArea":"Клуб борьбы дзюдо имени Александра Невского"}],"id":1000018,"availabilityType":"Шаговая доступность","title":"Клуб борьбы дзюдо имени Александра Невского","department":{"id":404404,"title":"Вне департамента"},"coordinate":{"longitude":37.025129399999997,"latitude":55.628113300000003}},{"address":"","sport":[{"sportAreaID":0,"sportType":{"id":1000027,"title":"Karate"},"sportAreaType":"Кельтский самурай","square":20,"sportArea":"Кельтский самурай"}],"id":1000027,"availabilityType":"Шаговая доступность","title":"Кельтский самурай","department":{"id":404404,"title":"Вне департамента"},"coordinate":{"longitude":36.991543499999999,"latitude":55.620522299999998}},{"address":"","sport":[{"sportAreaID":0,"sportType":{"id":1000029,"title":"Trampoline"},"sportAreaType":"JustJump!","square":20,"sportArea":"JustJump!"}],"id":1000029,"availabilityType":"Шаговая доступность","title":"JustJump!","department":{"id":404404,"title":"Вне департамента"},"coordinate":{"longitude":37.423542300000001,"latitude":55.624227500000003}},{"address":"","sport":[{"sportAreaID":0,"sportType":{"id":1000031,"title":"Fitness"},"sportAreaType":"Fitnessstation","square":20,"sportArea":"Fitnessstation"}],"id":1000031,"availabilityType":"Шаговая доступность","title":"Fitnessstation","department":{"id":404404,"title":"Вне департамента"},"coordinate":{"longitude":37.662153699999998,"latitude":55.627432300000002}},{"address":"","sport":[{"sportAreaID":0,"sportType":{"id":1000033,"title":"Table tennis"},"sportAreaType":"Pitch","square":20,"sportArea":"Pitch"}],"id":1000033,"availabilityType":"Шаговая доступность","title":"Pitch","department":{"id":404404,"title":"Вне департамента"},"coordinate":{"longitude":37.398028099999998,"latitude":55.615408700000003}},{"address":"","sport":[{"sportAreaID":0,"sportType":{"id":1000034,"title":"Table tennis"},"sportAreaType":"Pitch","square":20,"sportArea":"Pitch"}],"id":1000034,"availabilityType":"Шаговая доступность","title":"Pitch","department":{"id":404404,"title":"Вне департамента"},"coordinate":{"longitude":37.418382299999998,"latitude":55.619565700000003}},{"address":"","sport":[{"sportAreaID":0,"sportType":{"id":1000035,"title":"Table tennis"},"sportAreaType":"Pitch","square":20,"sportArea":"Pitch"}],"id":1000035,"availabilityType":"Шаговая доступность","title":"Pitch","department":{"id":404404,"title":"Вне департамента"},"coordinate":{"longitude":37.418409699999998,"latitude":55.6195241}},{"address":"","sport":[{"sportAreaID":0,"sportType":{"id":1000036,"title":"Swimming"},"sportAreaType":"Величъ бассейн","square":20,"sportArea":"Величъ бассейн"}],"id":1000036,"availabilityType":"Шаговая доступность","title":"Величъ бассейн","department":{"id":404404,"title":"Вне департамента"},"coordinate":{"longitude":36.860262800000001,"latitude":55.748458900000003}},{"address":"","sport":[{"sportAreaID":0,"sportType":{"id":1000038,"title":"Multi"},"sportAreaType":"Велоклуб","square":20,"sportArea":"Велоклуб"}],"id":1000038,"availabilityType":"Шаговая доступность","title":"Велоклуб","department":{"id":404404,"title":"Вне департамента"},"coordinate":{"longitude":60.566552600000001,"latitude":55.736086700000001}},{"address":"","sport":[{"sportAreaID":0,"sportType":{"id":1000039,"title":"Basketball"},"sportAreaType":"Sportscentre","square":20,"sportArea":"Sportscentre"}],"id":1000039,"availabilityType":"Шаговая доступность","title":"Sportscentre","department":{"id":404404,"title":"Вне департамента"},"coordinate":{"longitude":60.567839200000002,"latitude":55.733148200000002}},{"address":"","sport":[{"sportAreaID":0,"sportType":{"id":1000040,"title":"Karting"},"sportAreaType":"Le Mans","square":20,"sportArea":"Le Mans"}],"id":1000040,"availabilityType":"Шаговая доступность","title":"Le Mans","department":{"id":404404,"title":"Вне департамента"},"coordinate":{"longitude":37.3963544,"latitude":55.735151500000001}},{"address":"","sport":[{"sportAreaID":0,"sportType":{"id":1000041,"title":"Billiards"},"sportAreaType":"Fix price","square":20,"sportArea":"Fix price"}],"id":1000041,"availabilityType":"Шаговая доступность","title":"Fix price","department":{"id":404404,"title":"Вне департамента"},"coordinate":{"longitude":38.001726900000001,"latitude":55.7466042}},{"address":"","sport":[{"sportAreaID":0,"sportType":{"id":1000042,"title":"Fitness"},"sportAreaType":"FitCurves","square":20,"sportArea":"FitCurves"}],"id":1000042,"availabilityType":"Шаговая доступность","title":"FitCurves","department":{"id":404404,"title":"Вне департамента"},"coordinate":{"longitude":52.4107451,"latitude":55.740492199999998}},{"address":"","sport":[{"sportAreaID":0,"sportType":{"id":1000043,"title":"Athletics"},"sportAreaType":"D-sport","square":20,"sportArea":"D-sport"}],"id":1000043,"availabilityType":"Шаговая доступность","title":"D-sport","department":{"id":404404,"title":"Вне департамента"},"coordinate":{"longitude":37.5874211,"latitude":55.743862100000001}},{"address":"","sport":[{"sportAreaID":0,"sportType":{"id":1000046,"title":"Billiards"},"sportAreaType":"Кафе Дяди Сэма","square":20,"sportArea":"Кафе Дяди Сэма"}],"id":1000046,"availabilityType":"Шаговая доступность","title":"Кафе Дяди Сэма","department":{"id":404404,"title":"Вне департамента"},"coordinate":{"longitude":37.640350599999998,"latitude":55.732260099999998}},{"address":"","sport":[{"sportAreaID":0,"sportType":{"id":1000047,"title":"Climbing"},"sportAreaType":"Скала сити","square":20,"sportArea":"Скала сити"}],"id":1000047,"availabilityType":"Шаговая доступность","title":"Скала сити","department":{"id":404404,"title":"Вне департамента"},"coordinate":{"longitude":37.527045000000001,"latitude":55.73986}},{"address":"","sport":[{"sportAreaID":0,"sportType":{"id":1000048,"title":"Skateboard"},"sportAreaType":"Pitch","square":20,"sportArea":"Pitch"}],"id":1000048,"availabilityType":"Шаговая доступность","title":"Pitch","department":{"id":404404,"title":"Вне департамента"},"coordinate":{"longitude":37.685206399999998,"latitude":55.733758600000002}},{"address":"","sport":[{"sportAreaID":0,"sportType":{"id":1000049,"title":"Skateboard"},"sportAreaType":"Скейтпарк","square":20,"sportArea":"Скейтпарк"}],"id":1000049,"availabilityType":"Шаговая доступность","title":"Скейтпарк","department":{"id":404404,"title":"Вне департамента"},"coordinate":{"longitude":37.771680500000002,"latitude":55.7392526}},{"address":"","sport":[{"sportAreaID":0,"sportType":{"id":1000052,"title":"Fitness"},"sportAreaType":"Fitnessstation","square":20,"sportArea":"Fitnessstation"}],"id":1000052,"availabilityType":"Шаговая доступность","title":"Fitnessstation","department":{"id":404404,"title":"Вне департамента"},"coordinate":{"longitude":37.664133200000002,"latitude":55.745211300000001}},{"address":"","sport":[{"sportAreaID":0,"sportType":{"id":1000054,"title":"Yoga"},"sportAreaType":"Бикрам-йога Россия","square":20,"sportArea":"Бикрам-йога Россия"}],"id":1000054,"availabilityType":"Шаговая доступность","title":"Бикрам-йога Россия","department":{"id":404404,"title":"Вне департамента"},"coordinate":{"longitude":37.584020199999998,"latitude":55.735727199999999}},{"address":"","sport":[{"sportAreaID":0,"sportType":{"id":1000056,"title":"Swimming"},"sportAreaType":"Fitness City","square":20,"sportArea":"Fitness City"}],"id":1000056,"availabilityType":"Шаговая доступность","title":"Fitness City","department":{"id":404404,"title":"Вне департамента"},"coordinate":{"longitude":37.785077000000001,"latitude":55.740873899999997}},{"address":"","sport":[{"sportAreaID":0,"sportType":{"id":1000057,"title":"10pin"},"sportAreaType":"Би Ба Бо","square":20,"sportArea":"Би Ба Бо"}],"id":1000057,"availabilityType":"Шаговая доступность","title":"Би Ба Бо","department":{"id":404404,"title":"Вне департамента"},"coordinate":{"longitude":37.583438200000003,"latitude":55.748257799999998}},{"address":"","sport":[{"sportAreaID":0,"sportType":{"id":1000058,"title":"Crossfit"},"sportAreaType":"CrossFit DOZEN","square":20,"sportArea":"CrossFit DOZEN"}],"id":1000058,"availabilityType":"Шаговая доступность","title":"CrossFit DOZEN","department":{"id":404404,"title":"Вне департамента"},"coordinate":{"longitude":37.560186399999999,"latitude":55.731736400000003}},{"address":"","sport":[{"sportAreaID":0,"sportType":{"id":1000059,"title":"Swimming"},"sportAreaType":"Fitnesscentre","square":20,"sportArea":"Fitnesscentre"}],"id":1000059,"availabilityType":"Шаговая доступность","title":"Fitnesscentre","department":{"id":404404,"title":"Вне департамента"},"coordinate":{"longitude":37.717128500000001,"latitude":55.737839100000002}},{"address":"","sport":[{"sportAreaID":0,"sportType":{"id":1000060,"title":"Basketball"},"sportAreaType":"Pitch","square":20,"sportArea":"Pitch"}],"id":1000060,"availabilityType":"Шаговая доступность","title":"Pitch","department":{"id":404404,"title":"Вне департамента"},"coordinate":{"longitude":37.609829499999996,"latitude":55.735544500000003}},{"address":"","sport":[{"sportAreaID":0,"sportType":{"id":1000062,"title":"Skiing"},"sportAreaType":"Лыжная база \"Дубравная\"","square":20,"sportArea":"Лыжная база \"Дубравная\""}],"id":1000062,"availabilityType":"Шаговая доступность","title":"Лыжная база \"Дубравная\"","department":{"id":404404,"title":"Вне департамента"},"coordinate":{"longitude":49.225430199999998,"latitude":55.738874000000003}},{"address":"","sport":[{"sportAreaID":0,"sportType":{"id":1000063,"title":"Fitness"},"sportAreaType":"Fitnessstation","square":20,"sportArea":"Fitnessstation"}],"id":1000063,"availabilityType":"Шаговая доступность","title":"Fitnessstation","department":{"id":404404,"title":"Вне департамента"},"coordinate":{"longitude":37.452745700000001,"latitude":55.739973999999997}},{"address":"","sport":[{"sportAreaID":0,"sportType":{"id":1000064,"title":"Fitness"},"sportAreaType":"La Salute","square":20,"sportArea":"La Salute"}],"id":1000064,"availabilityType":"Шаговая доступность","title":"La Salute","department":{"id":404404,"title":"Вне департамента"},"coordinate":{"longitude":37.655937399999999,"latitude":55.743417999999998}},{"address":"","sport":[{"sportAreaID":0,"sportType":{"id":1000066,"title":"Swimming"},"sportAreaType":"Афина","square":20,"sportArea":"Афина"}],"id":1000066,"availabilityType":"Шаговая доступность","title":"Афина","department":{"id":404404,"title":"Вне департамента"},"coordinate":{"longitude":52.429170900000003,"latitude":55.739998300000003}},{"address":"","sport":[{"sportAreaID":0,"sportType":{"id":1000068,"title":"Volleyball"},"sportAreaType":"Pitch","square":20,"sportArea":"Pitch"}],"id":1000068,"availabilityType":"Шаговая доступность","title":"Pitch","department":{"id":404404,"title":"Вне департамента"},"coordinate":{"longitude":49.172696999999999,"latitude":55.733933499999999}},{"address":"","sport":[{"sportAreaID":0,"sportType":{"id":1000069,"title":"Fitness"},"sportAreaType":"Atletico","square":20,"sportArea":"Atletico"}],"id":1000069,"availabilityType":"Шаговая доступность","title":"Atletico","department":{"id":404404,"title":"Вне департамента"},"coordinate":{"longitude":37.960434100000001,"latitude":55.747509999999998}},{"address":"","sport":[{"sportAreaID":0,"sportType":{"id":1000071,"title":"Boxing"},"sportAreaType":"Октябрь","square":20,"sportArea":"Октябрь"}],"id":1000071,"availabilityType":"Шаговая доступность","title":"Октябрь","department":{"id":404404,"title":"Вне департамента"},"coordinate":{"longitude":37.610329100000001,"latitude":55.741055799999998}},{"address":"","sport":[{"sportAreaID":0,"sportType":{"id":1000073,"title":"Table tennis"},"sportAreaType":"Pitch","square":20,"sportArea":"Pitch"}],"id":1000073,"availabilityType":"Шаговая доступность","title":"Pitch","department":{"id":404404,"title":"Вне департамента"},"coordinate":{"longitude":37.610695499999999,"latitude":55.737204200000001}},{"address":"","sport":[{"sportAreaID":0,"sportType":{"id":1000074,"title":"Table tennis"},"sportAreaType":"Pitch","square":20,"sportArea":"Pitch"}],"id":1000074,"availabilityType":"Шаговая доступность","title":"Pitch","department":{"id":404404,"title":"Вне департамента"},"coordinate":{"longitude":37.6107607,"latitude":55.737165599999997}},{"address":"","sport":[{"sportAreaID":0,"sportType":{"id":1000075,"title":"Table tennis"},"sportAreaType":"Pitch","square":20,"sportArea":"Pitch"}],"id":1000075,"availabilityType":"Шаговая доступность","title":"Pitch","department":{"id":404404,"title":"Вне департамента"},"coordinate":{"longitude":37.610831699999999,"latitude":55.737124899999998}},{"address":"","sport":[{"sportAreaID":0,"sportType":{"id":1000077,"title":"Yoga"},"sportAreaType":"Mabi Yoga","square":20,"sportArea":"Mabi Yoga"}],"id":1000077,"availabilityType":"Шаговая доступность","title":"Mabi Yoga","department":{"id":404404,"title":"Вне департамента"},"coordinate":{"longitude":37.583785900000002,"latitude":55.735245999999997}},{"address":"","sport":[{"sportAreaID":0,"sportType":{"id":1000079,"title":"Basketball"},"sportAreaType":"Pitch","square":20,"sportArea":"Pitch"}],"id":1000079,"availabilityType":"Шаговая доступность","title":"Pitch","department":{"id":404404,"title":"Вне департамента"},"coordinate":{"longitude":52.405862399999997,"latitude":55.743238400000003}},{"address":"","sport":[{"sportAreaID":0,"sportType":{"id":1000080,"title":"Table tennis"},"sportAreaType":"Pitch","square":20,"sportArea":"Pitch"}],"id":1000080,"availabilityType":"Шаговая доступность","title":"Pitch","department":{"id":404404,"title":"Вне департамента"},"coordinate":{"longitude":52.4083015,"latitude":55.738444299999998}},{"address":"","sport":[{"sportAreaID":0,"sportType":{"id":1000082,"title":"Yoga"},"sportAreaType":"iSoul Club","square":20,"sportArea":"iSoul Club"}],"id":1000082,"availabilityType":"Шаговая доступность","title":"iSoul Club","department":{"id":404404,"title":"Вне департамента"},"coordinate":{"longitude":37.658863699999998,"latitude":55.746049499999998}},{"address":"","sport":[{"sportAreaID":0,"sportType":{"id":1000084,"title":"Yoga"},"sportAreaType":"Йога ру","square":20,"sportArea":"Йога ру"}],"id":1000084,"availabilityType":"Шаговая доступность","title":"Йога ру","department":{"id":404404,"title":"Вне департамента"},"coordinate":{"longitude":37.663739399999997,"latitude":55.732141900000002}},{"address":"","sport":[{"sportAreaID":0,"sportType":{"id":1000085,"title":"Swimming"},"sportAreaType":"Swimmingarea","square":20,"sportArea":"Swimmingarea"}],"id":1000085,"availabilityType":"Шаговая доступность","title":"Swimmingarea","department":{"id":404404,"title":"Вне департамента"},"coordinate":{"longitude":42.012949900000002,"latitude":55.731127700000002}},{"address":"","sport":[{"sportAreaID":0,"sportType":{"id":1000086,"title":"10pin"},"sportAreaType":"Космик","square":20,"sportArea":"Космик"}],"id":1000086,"availabilityType":"Шаговая доступность","title":"Космик","department":{"id":404404,"title":"Вне департамента"},"coordinate":{"longitude":37.537011,"latitude":55.7479072}},{"address":"","sport":[{"sportAreaID":0,"sportType":{"id":1000088,"title":"Archery"},"sportAreaType":"Варяг","square":20,"sportArea":"Варяг"}],"id":1000088,"availabilityType":"Шаговая доступность","title":"Варяг","department":{"id":404404,"title":"Вне департамента"},"coordinate":{"longitude":37.527275000000003,"latitude":55.740630400000001}},{"address":"","sport":[{"sportAreaID":0,"sportType":{"id":1000090,"title":"Trampoline"},"sportAreaType":"Do a Flip","square":20,"sportArea":"Do a Flip"}],"id":1000090,"availabilityType":"Шаговая доступность","title":"Do a Flip","department":{"id":404404,"title":"Вне департамента"},"coordinate":{"longitude":37.524050500000001,"latitude":55.742536200000004}},{"address":"","sport":[{"sportAreaID":0,"sportType":{"id":1000091,"title":"Fitness"},"sportAreaType":"Evo","square":20,"sportArea":"Evo"}],"id":1000091,"availabilityType":"Шаговая доступность","title":"Evo","department":{"id":404404,"title":"Вне департамента"},"coordinate":{"longitude":37.529693100000003,"latitude":55.738371299999997}},{"address":"","sport":[{"sportAreaID":0,"sportType":{"id":1000092,"title":"Fitness"},"sportAreaType":"Fitnessstation","square":20,"sportArea":"Fitnessstation"}],"id":1000092,"availabilityType":"Шаговая доступность","title":"Fitnessstation","department":{"id":404404,"title":"Вне департамента"},"coordinate":{"longitude":48.745147000000003,"latitude":55.7456782}},{"address":"","sport":[{"sportAreaID":0,"sportType":{"id":1000093,"title":"Skateboard"},"sportAreaType":"Pitch","square":20,"sportArea":"Pitch"}],"id":1000093,"availabilityType":"Шаговая доступность","title":"Pitch","department":{"id":404404,"title":"Вне департамента"},"coordinate":{"longitude":48.7452641,"latitude":55.745605500000003}},{"address":"","sport":[{"sportAreaID":0,"sportType":{"id":1000095,"title":"Climbing"},"sportAreaType":"Сорель","square":20,"sportArea":"Сорель"}],"id":1000095,"availabilityType":"Шаговая доступность","title":"Сорель","department":{"id":404404,"title":"Вне департамента"},"coordinate":{"longitude":37.520107600000003,"latitude":55.744840199999999}},{"address":"","sport":[{"sportAreaID":0,"sportType":{"id":1000096,"title":"Fighting"},"sportAreaType":"CombatMarkt","square":20,"sportArea":"CombatMarkt"}],"id":1000096,"availabilityType":"Шаговая доступность","title":"CombatMarkt","department":{"id":404404,"title":"Вне департамента"},"coordinate":{"longitude":37.655183700000002,"latitude":55.748765400000003}},{"address":"","sport":[{"sportAreaID":0,"sportType":{"id":1000097,"title":"Yoga"},"sportAreaType":"Yoga mind","square":20,"sportArea":"Yoga mind"}],"id":1000097,"availabilityType":"Шаговая доступность","title":"Yoga mind","department":{"id":404404,"title":"Вне департамента"},"coordinate":{"longitude":37.632092499999999,"latitude":55.7392793}},{"address":"","sport":[{"sportAreaID":0,"sportType":{"id":1000098,"title":"Fitness"},"sportAreaType":"Сокол","square":20,"sportArea":"Сокол"}],"id":1000098,"availabilityType":"Шаговая доступность","title":"Сокол","department":{"id":404404,"title":"Вне департамента"},"coordinate":{"longitude":52.423798699999999,"latitude":55.740574799999997}},{"address":"","sport":[{"sportAreaID":0,"sportType":{"id":1000099,"title":"Athletics"},"sportAreaType":"World Class","square":20,"sportArea":"World Class"},{"sportAreaID":0,"sportType":{"id":1000099,"title":"Exercise"},"sportAreaType":"World Class","square":20,"sportArea":"World Class"},{"sportAreaID":0,"sportType":{"id":1000099,"title":"Fitness"},"sportAreaType":"World Class","square":20,"sportArea":"World Class"},{"sportAreaID":0,"sportType":{"id":1000099,"title":"Multi"},"sportAreaType":"World Class","square":20,"sportArea":"World Class"},{"sportAreaID":0,"sportType":{"id":1000099,"title":"Swimming"},"sportAreaType":"World Class","square":20,"sportArea":"World Class"},{"sportAreaID":0,"sportType":{"id":1000099,"title":"Yoga"},"sportAreaType":"World Class","square":20,"sportArea":"World Class"}],"id":1000099,"availabilityType":"Шаговая доступность","title":"World Class","department":{"id":404404,"title":"Вне департамента"},"coordinate":{"longitude":37.232373099999997,"latitude":55.744528699999996}},{"address":"","sport":[{"sportAreaID":0,"sportType":{"id":1000103,"title":"Athletics"},"sportAreaType":"World Class","square":20,"sportArea":"World Class"},{"sportAreaID":0,"sportType":{"id":1000103,"title":"Exercise"},"sportAreaType":"World Class","square":20,"sportArea":"World Class"},{"sportAreaID":0,"sportType":{"id":1000103,"title":"Fitness"},"sportAreaType":"World Class","square":20,"sportArea":"World Class"},{"sportAreaID":0,"sportType":{"id":1000103,"title":"Gymnastics"},"sportAreaType":"World Class","square":20,"sportArea":"World Class"},{"sportAreaID":0,"sportType":{"id":1000103,"title":"Multi"},"sportAreaType":"World Class","square":20,"sportArea":"World Class"},{"sportAreaID":0,"sportType":{"id":1000103,"title":"Swimming"},"sportAreaType":"World Class","square":20,"sportArea":"World Class"},{"sportAreaID":0,"sportType":{"id":1000103,"title":"Table tennis"},"sportAreaType":"World Class","square":20,"sportArea":"World Class"},{"sportAreaID":0,"sportType":{"id":1000103,"title":"Yoga"},"sportAreaType":"World Class","square":20,"sportArea":"World Class"}],"id":1000103,"availabilityType":"Шаговая доступность","title":"World Class","department":{"id":404404,"title":"Вне департамента"},"coordinate":{"longitude":37.539524900000004,"latitude":55.746879499999999}},{"address":"","sport":[{"sportAreaID":0,"sportType":{"id":1000107,"title":"Fitness"},"sportAreaType":"Fit-n-Go","square":20,"sportArea":"Fit-n-Go"}],"id":1000107,"availabilityType":"Шаговая доступность","title":"Fit-n-Go","department":{"id":404404,"title":"Вне департамента"},"coordinate":{"longitude":37.6606977,"latitude":55.734938300000003}},{"address":"","sport":[{"sportAreaID":0,"sportType":{"id":1000109,"title":"Gymnastics"},"sportAreaType":"Sportscentre","square":20,"sportArea":"Sportscentre"}],"id":1000109,"availabilityType":"Шаговая доступность","title":"Sportscentre","department":{"id":404404,"title":"Вне департамента"},"coordinate":{"longitude":37.662855,"latitude":55.734263499999997}},{"address":"","sport":[{"sportAreaID":0,"sportType":{"id":1000112,"title":"Billiards"},"sportAreaType":"Sport","square":20,"sportArea":"Sport"}],"id":1000112,"availabilityType":"Шаговая доступность","title":"Sport","department":{"id":404404,"title":"Вне департамента"},"coordinate":{"longitude":52.411713300000002,"latitude":55.733619599999997}},{"address":"","sport":[{"sportAreaID":0,"sportType":{"id":1000113,"title":"Yoga"},"sportAreaType":"NYM Yoga","square":20,"sportArea":"NYM Yoga"}],"id":1000113,"availabilityType":"Шаговая доступность","title":"NYM Yoga","department":{"id":404404,"title":"Вне департамента"},"coordinate":{"longitude":37.5886876,"latitude":55.744174399999999}},{"address":"","sport":[{"sportAreaID":0,"sportType":{"id":1000114,"title":"Curling"},"sportAreaType":"Московский керлинг-клуб","square":20,"sportArea":"Московский керлинг-клуб"}],"id":1000114,"availabilityType":"Шаговая доступность","title":"Московский керлинг-клуб","department":{"id":404404,"title":"Вне департамента"},"coordinate":{"longitude":37.686343000000001,"latitude":55.7317447}},{"address":"","sport":[],"id":1000115,"availabilityType":"Шаговая доступность","title":"NeoFly","department":{"id":404404,"title":"Вне департамента"},"coordinate":{"longitude":49.130282700000002,"latitude":55.7462278}},{"address":"","sport":[{"sportAreaID":0,"sportType":{"id":1000117,"title":"Fitness"},"sportAreaType":"Fitnessstation","square":20,"sportArea":"Fitnessstation"}],"id":1000117,"availabilityType":"Шаговая доступность","title":"Fitnessstation","department":{"id":404404,"title":"Вне департамента"},"coordinate":{"longitude":52.427912399999997,"latitude":55.740183899999998}},{"address":"","sport":[{"sportAreaID":0,"sportType":{"id":1000118,"title":"Fitness"},"sportAreaType":"Fitnessstation","square":20,"sportArea":"Fitnessstation"}],"id":1000118,"availabilityType":"Шаговая доступность","title":"Fitnessstation","department":{"id":404404,"title":"Вне департамента"},"coordinate":{"longitude":37.581809200000002,"latitude":55.7315015}},{"address":"","sport":[{"sportAreaID":0,"sportType":{"id":1000119,"title":"Table tennis"},"sportAreaType":"Pitch","square":20,"sportArea":"Pitch"}],"id":1000119,"availabilityType":"Шаговая доступность","title":"Pitch","department":{"id":404404,"title":"Вне департамента"},"coordinate":{"longitude":37.674273599999999,"latitude":55.7462193}},{"address":"","sport":[{"sportAreaID":0,"sportType":{"id":1000120,"title":"Skateboard"},"sportAreaType":"Pitch","square":20,"sportArea":"Pitch"}],"id":1000120,"availabilityType":"Шаговая доступность","title":"Pitch","department":{"id":404404,"title":"Вне департамента"},"coordinate":{"longitude":36.864743500000003,"latitude":55.735008700000002}},{"address":"","sport":[{"sportAreaID":0,"sportType":{"id":1000121,"title":"Yoga"},"sportAreaType":"Атма йога","square":20,"sportArea":"Атма йога"}],"id":1000121,"availabilityType":"Шаговая доступность","title":"Атма йога","department":{"id":404404,"title":"Вне департамента"},"coordinate":{"longitude":37.628006900000003,"latitude":55.746543299999999}},{"address":"","sport":[{"sportAreaID":0,"sportType":{"id":1000123,"title":"Fitness"},"sportAreaType":"ТемаФитнес","square":20,"sportArea":"ТемаФитнес"}],"id":1000123,"availabilityType":"Шаговая доступность","title":"ТемаФитнес","department":{"id":404404,"title":"Вне департамента"},"coordinate":{"longitude":37.6398267,"latitude":55.737887100000002}},{"address":"","sport":[{"sportAreaID":0,"sportType":{"id":1000124,"title":"Gymnastics"},"sportAreaType":"MyGym","square":20,"sportArea":"MyGym"}],"id":1000124,"availabilityType":"Шаговая доступность","title":"MyGym","department":{"id":404404,"title":"Вне департамента"},"coordinate":{"longitude":37.659343800000002,"latitude":55.7431719}},{"address":"","sport":[],"id":1000125,"availabilityType":"Шаговая доступность","title":"Brothers boxing club","department":{"id":404404,"title":"Вне департамента"},"coordinate":{"longitude":37.539937399999999,"latitude":55.748202499999998}},{"address":"","sport":[{"sportAreaID":0,"sportType":{"id":1000127,"title":"Skiing"},"sportAreaType":"СК \"Ромашково\"","square":20,"sportArea":"СК \"Ромашково\""}],"id":1000127,"availabilityType":"Шаговая доступность","title":"СК \"Ромашково\"","department":{"id":404404,"title":"Вне департамента"},"coordinate":{"longitude":37.355080000000001,"latitude":55.734231800000003}},{"address":"","sport":[{"sportAreaID":0,"sportType":{"id":1000128,"title":"Shooting"},"sportAreaType":"Лимонтир","square":20,"sportArea":"Лимонтир"}],"id":1000128,"availabilityType":"Шаговая доступность","title":"Лимонтир","department":{"id":404404,"title":"Вне департамента"},"coordinate":{"longitude":37.490565799999999,"latitude":55.746923600000002}},{"address":"","sport":[{"sportAreaID":0,"sportType":{"id":1000129,"title":"Fitness"},"sportAreaType":"Fitnessstation","square":20,"sportArea":"Fitnessstation"}],"id":1000129,"availabilityType":"Шаговая доступность","title":"Fitnessstation","department":{"id":404404,"title":"Вне департамента"},"coordinate":{"longitude":38.048944900000002,"latitude":55.746275599999997}},{"address":"","sport":[{"sportAreaID":0,"sportType":{"id":1000130,"title":"10pin"},"sportAreaType":"Планета боулинг","square":20,"sportArea":"Планета боулинг"}],"id":1000130,"availabilityType":"Шаговая доступность","title":"Планета боулинг","department":{"id":404404,"title":"Вне департамента"},"coordinate":{"longitude":37.661951600000002,"latitude":55.675794500000002}},{"address":"","sport":[{"sportAreaID":0,"sportType":{"id":1000131,"title":"Swimming"},"sportAreaType":"Бассейн","square":20,"sportArea":"Бассейн"}],"id":1000131,"availabilityType":"Шаговая доступность","title":"Бассейн","department":{"id":404404,"title":"Вне департамента"},"coordinate":{"longitude":37.394040699999998,"latitude":55.688374400000001}},{"address":"","sport":[{"sportAreaID":0,"sportType":{"id":1000132,"title":"Skiing"},"sportAreaType":"Лыжный стадион \"Провиция\"","square":20,"sportArea":"Лыжный стадион \"Провиция\""}],"id":1000132,"availabilityType":"Шаговая доступность","title":"Лыжный стадион \"Провиция\"","department":{"id":404404,"title":"Вне департамента"},"coordinate":{"longitude":60.343952700000003,"latitude":55.673587599999998}},{"address":"","sport":[{"sportAreaID":0,"sportType":{"id":1000133,"title":"Swimming"},"sportAreaType":"бассейн","square":20,"sportArea":"бассейн"}],"id":1000133,"availabilityType":"Шаговая доступность","title":"бассейн","department":{"id":404404,"title":"Вне департамента"},"coordinate":{"longitude":36.697072200000001,"latitude":55.6852175}},{"address":"","sport":[{"sportAreaID":0,"sportType":{"id":1000134,"title":"Equestrian"},"sportAreaType":"Matsoft","square":20,"sportArea":"Matsoft"}],"id":1000134,"availabilityType":"Шаговая доступность","title":"Matsoft","department":{"id":404404,"title":"Вне департамента"},"coordinate":{"longitude":36.693652,"latitude":55.6833393}},{"address":"","sport":[{"sportAreaID":0,"sportType":{"id":1000135,"title":"Swimming"},"sportAreaType":"Sportscentre","square":20,"sportArea":"Sportscentre"}],"id":1000135,"availabilityType":"Шаговая доступность","title":"Sportscentre","department":{"id":404404,"title":"Вне департамента"},"coordinate":{"longitude":37.649627500000001,"latitude":55.674367500000002}},{"address":"","sport":[{"sportAreaID":0,"sportType":{"id":1000136,"title":"Fitness"},"sportAreaType":"Fit Land","square":20,"sportArea":"Fit Land"}],"id":1000136,"availabilityType":"Шаговая доступность","title":"Fit Land","department":{"id":404404,"title":"Вне департамента"},"coordinate":{"longitude":52.295784699999999,"latitude":55.686446599999996}},{"address":"","sport":[{"sportAreaID":0,"sportType":{"id":1000137,"title":"Cycling"},"sportAreaType":"Pitch","square":20,"sportArea":"Pitch"}],"id":1000137,"availabilityType":"Шаговая доступность","title":"Pitch","department":{"id":404404,"title":"Вне департамента"},"coordinate":{"longitude":37.621456899999998,"latitude":55.689043900000001}},{"address":"","sport":[{"sportAreaID":0,"sportType":{"id":1000138,"title":"Shooting"},"sportAreaType":"Стрелок, пейнтбольный клуб","square":20,"sportArea":"Стрелок, пейнтбольный клуб"}],"id":1000138,"availabilityType":"Шаговая доступность","title":"Стрелок, пейнтбольный клуб","department":{"id":404404,"title":"Вне департамента"},"coordinate":{"longitude":51.800280000000001,"latitude":55.679827799999998}},{"address":"","sport":[{"sportAreaID":0,"sportType":{"id":1000139,"title":"Cycling"},"sportAreaType":"Pitch","square":20,"sportArea":"Pitch"}],"id":1000139,"availabilityType":"Шаговая доступность","title":"Pitch","department":{"id":404404,"title":"Вне департамента"},"coordinate":{"longitude":37.831439600000003,"latitude":55.675303700000001}},{"address":"","sport":[{"sportAreaID":0,"sportType":{"id":1000140,"title":"Fitness"},"sportAreaType":"Alex fitness","square":20,"sportArea":"Alex fitness"}],"id":1000140,"availabilityType":"Шаговая доступность","title":"Alex fitness","department":{"id":404404,"title":"Вне департамента"},"coordinate":{"longitude":37.662734700000001,"latitude":55.683165899999999}},{"address":"","sport":[{"sportAreaID":0,"sportType":{"id":1000143,"title":"Tennis"},"sportAreaType":"Котельники-9","square":20,"sportArea":"Котельники-9"}],"id":1000143,"availabilityType":"Шаговая доступность","title":"Котельники-9","department":{"id":404404,"title":"Вне департамента"},"coordinate":{"longitude":37.859842700000002,"latitude":55.672582499999997}},{"address":"","sport":[{"sportAreaID":0,"sportType":{"id":1000144,"title":"Climbing"},"sportAreaType":"Атмосфера","square":20,"sportArea":"Атмосфера"}],"id":1000144,"availabilityType":"Шаговая доступность","title":"Атмосфера","department":{"id":404404,"title":"Вне департамента"},"coordinate":{"longitude":37.610853499999997,"latitude":55.675263100000002}},{"address":"","sport":[{"sportAreaID":0,"sportType":{"id":1000147,"title":"Motor"},"sportAreaType":"Stringtough","square":20,"sportArea":"Stringtough"}],"id":1000147,"availabilityType":"Шаговая доступность","title":"Stringtough","department":{"id":404404,"title":"Вне департамента"},"coordinate":{"longitude":37.774430199999998,"latitude":55.686663600000003}},{"address":"","sport":[{"sportAreaID":0,"sportType":{"id":1000148,"title":"Fitness"},"sportAreaType":"Groza Gym","square":20,"sportArea":"Groza Gym"}],"id":1000148,"availabilityType":"Шаговая доступность","title":"Groza Gym","department":{"id":404404,"title":"Вне департамента"},"coordinate":{"longitude":37.877520199999999,"latitude":55.684066199999997}},{"address":"","sport":[],"id":1000149,"availabilityType":"Шаговая доступность","title":"Icerink","department":{"id":404404,"title":"Вне департамента"},"coordinate":{"longitude":37.877722499999997,"latitude":55.670488800000001}},{"address":"","sport":[{"sportAreaID":0,"sportType":{"id":1000151,"title":"Skiing"},"sportAreaType":"Adidas skibase","square":20,"sportArea":"Adidas skibase"}],"id":1000151,"availabilityType":"Шаговая доступность","title":"Adidas skibase","department":{"id":404404,"title":"Вне департамента"},"coordinate":{"longitude":37.477494700000001,"latitude":55.678892500000003}},{"address":"","sport":[{"sportAreaID":0,"sportType":{"id":1000152,"title":"Fitness"},"sportAreaType":"Фитнес-студия «Ирбис»","square":20,"sportArea":"Фитнес-студия «Ирбис»"}],"id":1000152,"availabilityType":"Шаговая доступность","title":"Фитнес-студия «Ирбис»","department":{"id":404404,"title":"Вне департамента"},"coordinate":{"longitude":37.8804272,"latitude":55.670152700000003}},{"address":"","sport":[{"sportAreaID":0,"sportType":{"id":1000153,"title":"Beachvolleyball"},"sportAreaType":"Pitch","square":20,"sportArea":"Pitch"}],"id":1000153,"availabilityType":"Шаговая доступность","title":"Pitch","department":{"id":404404,"title":"Вне департамента"},"coordinate":{"longitude":37.795953599999997,"latitude":55.6886668}},{"address":"","sport":[{"sportAreaID":0,"sportType":{"id":1000154,"title":"Beachvolleyball"},"sportAreaType":"Pitch","square":20,"sportArea":"Pitch"}],"id":1000154,"availabilityType":"Шаговая доступность","title":"Pitch","department":{"id":404404,"title":"Вне департамента"},"coordinate":{"longitude":37.795866500000002,"latitude":55.688747300000003}},{"address":"","sport":[{"sportAreaID":0,"sportType":{"id":1000155,"title":"Athletics"},"sportAreaType":"Fitnessstation","square":20,"sportArea":"Fitnessstation"}],"id":1000155,"availabilityType":"Шаговая доступность","title":"Fitnessstation","department":{"id":404404,"title":"Вне департамента"},"coordinate":{"longitude":37.622189800000001,"latitude":55.669466700000001}},{"address":"","sport":[{"sportAreaID":0,"sportType":{"id":1000156,"title":"Athletics"},"sportAreaType":"Fitnessstation","square":20,"sportArea":"Fitnessstation"}],"id":1000156,"availabilityType":"Шаговая доступность","title":"Fitnessstation","department":{"id":404404,"title":"Вне департамента"},"coordinate":{"longitude":37.606791299999998,"latitude":55.670699499999998}},{"address":"","sport":[{"sportAreaID":0,"sportType":{"id":1000161,"title":"Ice skating"},"sportAreaType":"каток","square":20,"sportArea":"каток"}],"id":1000161,"availabilityType":"Шаговая доступность","title":"каток","department":{"id":404404,"title":"Вне департамента"},"coordinate":{"longitude":36.695155999999997,"latitude":55.685127700000002}},{"address":"","sport":[{"sportAreaID":0,"sportType":{"id":1000162,"title":"Fitness"},"sportAreaType":"Fitnessstation","square":20,"sportArea":"Fitnessstation"}],"id":1000162,"availabilityType":"Шаговая доступность","title":"Fitnessstation","department":{"id":404404,"title":"Вне департамента"},"coordinate":{"longitude":37.876553399999999,"latitude":55.687342100000002}},{"address":"","sport":[{"sportAreaID":0,"sportType":{"id":1000167,"title":"Fitness"},"sportAreaType":"Fitnessstation","square":20,"sportArea":"Fitnessstation"}],"id":1000167,"availabilityType":"Шаговая доступность","title":"Fitnessstation","department":{"id":404404,"title":"Вне департамента"},"coordinate":{"longitude":37.378714700000003,"latitude":55.668623699999998}},{"address":"","sport":[{"sportAreaID":0,"sportType":{"id":1000168,"title":"Billiards"},"sportAreaType":"Дуплет","square":20,"sportArea":"Дуплет"}],"id":1000168,"availabilityType":"Шаговая доступность","title":"Дуплет","department":{"id":404404,"title":"Вне департамента"},"coordinate":{"longitude":37.730145999999998,"latitude":55.683045900000003}},{"address":"","sport":[{"sportAreaID":0,"sportType":{"id":1000170,"title":"Athletics"},"sportAreaType":"World Class","square":20,"sportArea":"World Class"},{"sportAreaID":0,"sportType":{"id":1000170,"title":"Exercise"},"sportAreaType":"World Class","square":20,"sportArea":"World Class"},{"sportAreaID":0,"sportType":{"id":1000170,"title":"Fitness"},"sportAreaType":"World Class","square":20,"sportArea":"World Class"},{"sportAreaID":0,"sportType":{"id":1000170,"title":"Gymnastics"},"sportAreaType":"World Class","square":20,"sportArea":"World Class"},{"sportAreaID":0,"sportType":{"id":1000170,"title":"Multi"},"sportAreaType":"World Class","square":20,"sportArea":"World Class"},{"sportAreaID":0,"sportType":{"id":1000170,"title":"Swimming"},"sportAreaType":"World Class","square":20,"sportArea":"World Class"},{"sportAreaID":0,"sportType":{"id":1000170,"title":"Yoga"},"sportAreaType":"World Class","square":20,"sportArea":"World Class"}],"id":1000170,"availabilityType":"Шаговая доступность","title":"World Class","department":{"id":404404,"title":"Вне департамента"},"coordinate":{"longitude":37.5594903,"latitude":55.672256400000002}},{"address":"","sport":[{"sportAreaID":0,"sportType":{"id":1000171,"title":"Soccer"},"sportAreaType":"Pitch","square":20,"sportArea":"Pitch"}],"id":1000171,"availabilityType":"Шаговая доступность","title":"Pitch","department":{"id":404404,"title":"Вне департамента"},"coordinate":{"longitude":39.0030845,"latitude":55.6767191}},{"address":"","sport":[{"sportAreaID":0,"sportType":{"id":1000172,"title":"Karting"},"sportAreaType":"Lonato Karting","square":20,"sportArea":"Lonato Karting"}],"id":1000172,"availabilityType":"Шаговая доступность","title":"Lonato Karting","department":{"id":404404,"title":"Вне департамента"},"coordinate":{"longitude":37.618180299999999,"latitude":55.680744199999999}},{"address":"","sport":[{"sportAreaID":0,"sportType":{"id":1000173,"title":"Gymnastics"},"sportAreaType":"Anix Dance","square":20,"sportArea":"Anix Dance"}],"id":1000173,"availabilityType":"Шаговая доступность","title":"Anix Dance","department":{"id":404404,"title":"Вне департамента"},"coordinate":{"longitude":37.660794899999999,"latitude":55.683491199999999}},{"address":"","sport":[{"sportAreaID":0,"sportType":{"id":1000174,"title":"Swimming"},"sportAreaType":"Территория Фитнеса","square":20,"sportArea":"Территория Фитнеса"}],"id":1000174,"availabilityType":"Шаговая доступность","title":"Территория Фитнеса","department":{"id":404404,"title":"Вне департамента"},"coordinate":{"longitude":37.716040300000003,"latitude":55.680432099999997}},{"address":"","sport":[{"sportAreaID":0,"sportType":{"id":1000175,"title":"Climbing"},"sportAreaType":"Скалодром «Атмосфера»","square":20,"sportArea":"Скалодром «Атмосфера»"}],"id":1000175,"availabilityType":"Шаговая доступность","title":"Скалодром «Атмосфера»","department":{"id":404404,"title":"Вне департамента"},"coordinate":{"longitude":37.6131162,"latitude":55.676284099999997}},{"address":"","sport":[{"sportAreaID":0,"sportType":{"id":1000176,"title":"Fitness"},"sportAreaType":"Fitnessstation","square":20,"sportArea":"Fitnessstation"}],"id":1000176,"availabilityType":"Шаговая доступность","title":"Fitnessstation","department":{"id":404404,"title":"Вне департамента"},"coordinate":{"longitude":37.915930699999997,"latitude":55.669696600000002}},{"address":"","sport":[{"sportAreaID":0,"sportType":{"id":1000177,"title":"Fitness"},"sportAreaType":"Fitnessstation","square":20,"sportArea":"Fitnessstation"}],"id":1000177,"availabilityType":"Шаговая доступность","title":"Fitnessstation","department":{"id":404404,"title":"Вне департамента"},"coordinate":{"longitude":37.918138900000002,"latitude":55.669586799999998}},{"address":"","sport":[{"sportAreaID":0,"sportType":{"id":1000178,"title":"Fitness"},"sportAreaType":"The block","square":20,"sportArea":"The block"},{"sportAreaID":0,"sportType":{"id":1000178,"title":"Yoga"},"sportAreaType":"The block","square":20,"sportArea":"The block"}],"id":1000178,"availabilityType":"Шаговая доступность","title":"The block","department":{"id":404404,"title":"Вне департамента"},"coordinate":{"longitude":37.873249000000001,"latitude":55.679510700000002}},{"address":"","sport":[{"sportAreaID":0,"sportType":{"id":1000179,"title":"Table tennis"},"sportAreaType":"Pitch","square":20,"sportArea":"Pitch"}],"id":1000179,"availabilityType":"Шаговая доступность","title":"Pitch","department":{"id":404404,"title":"Вне департамента"},"coordinate":{"longitude":37.871718199999997,"latitude":55.675764700000002}},{"address":"","sport":[{"sportAreaID":0,"sportType":{"id":1000180,"title":"Fitness"},"sportAreaType":"Fitnessstation","square":20,"sportArea":"Fitnessstation"}],"id":1000180,"availabilityType":"Шаговая доступность","title":"Fitnessstation","department":{"id":404404,"title":"Вне департамента"},"coordinate":{"longitude":37.8702106,"latitude":55.675090500000003}},{"address":"","sport":[{"sportAreaID":0,"sportType":{"id":1000181,"title":"Table tennis"},"sportAreaType":"Pitch","square":20,"sportArea":"Pitch"}],"id":1000181,"availabilityType":"Шаговая доступность","title":"Pitch","department":{"id":404404,"title":"Вне департамента"},"coordinate":{"longitude":37.870374300000002,"latitude":55.675359100000001}},{"address":"","sport":[{"sportAreaID":0,"sportType":{"id":1000182,"title":"Fitness"},"sportAreaType":"Fitnessstation","square":20,"sportArea":"Fitnessstation"}],"id":1000182,"availabilityType":"Шаговая доступность","title":"Fitnessstation","department":{"id":404404,"title":"Вне департамента"},"coordinate":{"longitude":37.8749933,"latitude":55.676353200000001}},{"address":"","sport":[{"sportAreaID":0,"sportType":{"id":1000183,"title":"Table tennis"},"sportAreaType":"Pitch","square":20,"sportArea":"Pitch"}],"id":1000183,"availabilityType":"Шаговая доступность","title":"Pitch","department":{"id":404404,"title":"Вне департамента"},"coordinate":{"longitude":37.8622984,"latitude":55.676729600000002}},{"address":"","sport":[{"sportAreaID":0,"sportType":{"id":1000184,"title":"Table tennis"},"sportAreaType":"Pitch","square":20,"sportArea":"Pitch"}],"id":1000184,"availabilityType":"Шаговая доступность","title":"Pitch","department":{"id":404404,"title":"Вне департамента"},"coordinate":{"longitude":37.862397600000001,"latitude":55.676751299999999}},{"address":"","sport":[{"sportAreaID":0,"sportType":{"id":1000186,"title":"Rowing"},"sportAreaType":"Alphazap","square":20,"sportArea":"Alphazap"},{"sportAreaID":0,"sportType":{"id":1000186,"title":"Canoe"},"sportAreaType":"Alphazap","square":20,"sportArea":"Alphazap"}],"id":1000186,"availabilityType":"Шаговая доступность","title":"Alphazap","department":{"id":404404,"title":"Вне департамента"},"coordinate":{"longitude":37.9878894,"latitude":55.670085499999999}},{"address":"","sport":[{"sportAreaID":0,"sportType":{"id":1000187,"title":"Table tennis"},"sportAreaType":"Pitch","square":20,"sportArea":"Pitch"}],"id":1000187,"availabilityType":"Шаговая доступность","title":"Pitch","department":{"id":404404,"title":"Вне департамента"},"coordinate":{"longitude":37.8611182,"latitude":55.676772700000001}},{"address":"","sport":[{"sportAreaID":0,"sportType":{"id":1000189,"title":"Multi"},"sportAreaType":"Турники","square":20,"sportArea":"Турники"}],"id":1000189,"availabilityType":"Шаговая доступность","title":"Турники","department":{"id":404404,"title":"Вне департамента"},"coordinate":{"longitude":37.374865700000001,"latitude":55.671765200000003}},{"address":"","sport":[{"sportAreaID":0,"sportType":{"id":1000191,"title":"Table tennis"},"sportAreaType":"Pitch","square":20,"sportArea":"Pitch"}],"id":1000191,"availabilityType":"Шаговая доступность","title":"Pitch","department":{"id":404404,"title":"Вне департамента"},"coordinate":{"longitude":37.866144200000001,"latitude":55.678973399999997}},{"address":"","sport":[{"sportAreaID":0,"sportType":{"id":1000192,"title":"Table tennis"},"sportAreaType":"Pitch","square":20,"sportArea":"Pitch"}],"id":1000192,"availabilityType":"Шаговая доступность","title":"Pitch","department":{"id":404404,"title":"Вне департамента"},"coordinate":{"longitude":37.866259499999998,"latitude":55.679000600000002}},{"address":"","sport":[{"sportAreaID":0,"sportType":{"id":1000193,"title":"Table tennis"},"sportAreaType":"Pitch","square":20,"sportArea":"Pitch"}],"id":1000193,"availabilityType":"Шаговая доступность","title":"Pitch","department":{"id":404404,"title":"Вне департамента"},"coordinate":{"longitude":37.864985699999998,"latitude":55.676818699999998}},{"address":"","sport":[{"sportAreaID":0,"sportType":{"id":1000194,"title":"Fitness"},"sportAreaType":"Wild Athletic Club","square":20,"sportArea":"Wild Athletic Club"}],"id":1000194,"availabilityType":"Шаговая доступность","title":"Wild Athletic Club","department":{"id":404404,"title":"Вне департамента"},"coordinate":{"longitude":37.495284699999999,"latitude":55.8606719}},{"address":"","sport":[{"sportAreaID":0,"sportType":{"id":1000196,"title":"Swimming"},"sportAreaType":"Ква-Ква-Парк","square":20,"sportArea":"Ква-Ква-Парк"}],"id":1000196,"availabilityType":"Шаговая доступность","title":"Ква-Ква-Парк","department":{"id":404404,"title":"Вне департамента"},"coordinate":{"longitude":37.748422699999999,"latitude":55.891230800000002}},{"address":"","sport":[{"sportAreaID":0,"sportType":{"id":1000197,"title":"Fitness"},"sportAreaType":"Планета фитнес","square":20,"sportArea":"Планета фитнес"}],"id":1000197,"availabilityType":"Шаговая доступность","title":"Планета фитнес","department":{"id":404404,"title":"Вне департамента"},"coordinate":{"longitude":37.424784500000001,"latitude":55.886586700000002}},{"address":"","sport":[{"sportAreaID":0,"sportType":{"id":1000198,"title":"Fitness"},"sportAreaType":"АР-ТЕ Спорт","square":20,"sportArea":"АР-ТЕ Спорт"}],"id":1000198,"availabilityType":"Шаговая доступность","title":"АР-ТЕ Спорт","department":{"id":404404,"title":"Вне департамента"},"coordinate":{"longitude":37.6182436,"latitude":55.876215299999998}},{"address":"","sport":[{"sportAreaID":0,"sportType":{"id":1000199,"title":"Gymnastics"},"sportAreaType":"Спортив","square":20,"sportArea":"Спортив"}],"id":1000199,"availabilityType":"Шаговая доступность","title":"Спортив","department":{"id":404404,"title":"Вне департамента"},"coordinate":{"longitude":37.659308600000003,"latitude":55.860157800000003}},{"address":"","sport":[{"sportAreaID":0,"sportType":{"id":1000200,"title":"Athletics"},"sportAreaType":"Зебра","square":20,"sportArea":"Зебра"}],"id":1000200,"availabilityType":"Шаговая доступность","title":"Зебра","department":{"id":404404,"title":"Вне департамента"},"coordinate":{"longitude":37.704481700000002,"latitude":55.867258100000001}},{"address":"","sport":[{"sportAreaID":0,"sportType":{"id":1000201,"title":"Bowls"},"sportAreaType":"Космик-Вэйпарк","square":20,"sportArea":"Космик-Вэйпарк"}],"id":1000201,"availabilityType":"Шаговая доступность","title":"Космик-Вэйпарк","department":{"id":404404,"title":"Вне департамента"},"coordinate":{"longitude":37.395092599999998,"latitude":55.860222}},{"address":"","sport":[{"sportAreaID":0,"sportType":{"id":1000202,"title":"Water ski"},"sportAreaType":"White eagles wake park","square":20,"sportArea":"White eagles wake park"}],"id":1000202,"availabilityType":"Шаговая доступность","title":"White eagles wake park","department":{"id":404404,"title":"Вне департамента"},"coordinate":{"longitude":38.0007977,"latitude":55.868561900000003}},{"address":"","sport":[{"sportAreaID":0,"sportType":{"id":1000203,"title":"Swimming"},"sportAreaType":"FitnessONE","square":20,"sportArea":"FitnessONE"},{"sportAreaID":0,"sportType":{"id":1000203,"title":"Fitness"},"sportAreaType":"FitnessONE","square":20,"sportArea":"FitnessONE"},{"sportAreaID":0,"sportType":{"id":1000203,"title":"Gymnastics"},"sportAreaType":"FitnessONE","square":20,"sportArea":"FitnessONE"},{"sportAreaID":0,"sportType":{"id":1000203,"title":"Yoga"},"sportAreaType":"FitnessONE","square":20,"sportArea":"FitnessONE"}],"id":1000203,"availabilityType":"Шаговая доступность","title":"FitnessONE","department":{"id":404404,"title":"Вне департамента"},"coordinate":{"longitude":36.797026799999998,"latitude":55.8775446}},{"address":"","sport":[{"sportAreaID":0,"sportType":{"id":1000204,"title":"Swimming"},"sportAreaType":"Swimmingpool","square":20,"sportArea":"Swimmingpool"}],"id":1000204,"availabilityType":"Шаговая доступность","title":"Swimmingpool","department":{"id":404404,"title":"Вне департамента"},"coordinate":{"longitude":37.730941100000003,"latitude":55.897127300000001}},{"address":"","sport":[{"sportAreaID":0,"sportType":{"id":1000205,"title":"Gymnastics"},"sportAreaType":"Pitch","square":20,"sportArea":"Pitch"}],"id":1000205,"availabilityType":"Шаговая доступность","title":"Pitch","department":{"id":404404,"title":"Вне департамента"},"coordinate":{"longitude":37.447615900000002,"latitude":55.8712971}},{"address":"","sport":[],"id":1000206,"availabilityType":"Шаговая доступность","title":"Fitnessstation","department":{"id":404404,"title":"Вне департамента"},"coordinate":{"longitude":37.590143699999999,"latitude":55.856378900000003}},{"address":"","sport":[{"sportAreaID":0,"sportType":{"id":1000207,"title":"Skiing"},"sportAreaType":"Горнолыжный курорт \"Лужки\"","square":20,"sportArea":"Горнолыжный курорт \"Лужки\""}],"id":1000207,"availabilityType":"Шаговая доступность","title":"Горнолыжный курорт \"Лужки\"","department":{"id":404404,"title":"Вне департамента"},"coordinate":{"longitude":36.981182699999998,"latitude":55.8567982}},{"address":"","sport":[{"sportAreaID":0,"sportType":{"id":1000208,"title":"Fitness"},"sportAreaType":"Fitnessstation","square":20,"sportArea":"Fitnessstation"}],"id":1000208,"availabilityType":"Шаговая доступность","title":"Fitnessstation","department":{"id":404404,"title":"Вне департамента"},"coordinate":{"longitude":37.677546200000002,"latitude":55.884524200000001}},{"address":"","sport":[{"sportAreaID":0,"sportType":{"id":1000209,"title":"Fitness"},"sportAreaType":"Fitnessstation","square":20,"sportArea":"Fitnessstation"}],"id":1000209,"availabilityType":"Шаговая доступность","title":"Fitnessstation","department":{"id":404404,"title":"Вне департамента"},"coordinate":{"longitude":37.674868799999999,"latitude":55.882989999999999}},{"address":"","sport":[{"sportAreaID":0,"sportType":{"id":1000210,"title":"Fitness"},"sportAreaType":"Fitnessstation","square":20,"sportArea":"Fitnessstation"}],"id":1000210,"availabilityType":"Шаговая доступность","title":"Fitnessstation","department":{"id":404404,"title":"Вне департамента"},"coordinate":{"longitude":37.674757999999997,"latitude":55.882925}},{"address":"","sport":[{"sportAreaID":0,"sportType":{"id":1000211,"title":"Fitness"},"sportAreaType":"Fitnessstation","square":20,"sportArea":"Fitnessstation"}],"id":1000211,"availabilityType":"Шаговая доступность","title":"Fitnessstation","department":{"id":404404,"title":"Вне департамента"},"coordinate":{"longitude":37.674623799999999,"latitude":55.8829007}},{"address":"","sport":[{"sportAreaID":0,"sportType":{"id":1000212,"title":"Table tennis"},"sportAreaType":"Pitch","square":20,"sportArea":"Pitch"}],"id":1000212,"availabilityType":"Шаговая доступность","title":"Pitch","department":{"id":404404,"title":"Вне департамента"},"coordinate":{"longitude":37.654673899999999,"latitude":55.873985500000003}},{"address":"","sport":[{"sportAreaID":0,"sportType":{"id":1000214,"title":"Fitness"},"sportAreaType":"Fitnessstation","square":20,"sportArea":"Fitnessstation"}],"id":1000214,"availabilityType":"Шаговая доступность","title":"Fitnessstation","department":{"id":404404,"title":"Вне департамента"},"coordinate":{"longitude":37.655536499999997,"latitude":55.874013300000001}},{"address":"","sport":[{"sportAreaID":0,"sportType":{"id":1000215,"title":"Soccer"},"sportAreaType":"Pitch","square":20,"sportArea":"Pitch"}],"id":1000215,"availabilityType":"Шаговая доступность","title":"Pitch","department":{"id":404404,"title":"Вне департамента"},"coordinate":{"longitude":37.119839300000002,"latitude":55.885055999999999}},{"address":"","sport":[{"sportAreaID":0,"sportType":{"id":1000218,"title":"Fitness"},"sportAreaType":"FitClub","square":20,"sportArea":"FitClub"}],"id":1000218,"availabilityType":"Шаговая доступность","title":"FitClub","department":{"id":404404,"title":"Вне департамента"},"coordinate":{"longitude":37.5410337,"latitude":55.862726500000001}},{"address":"","sport":[],"id":1000219,"availabilityType":"Шаговая доступность","title":"Pitch","department":{"id":404404,"title":"Вне департамента"},"coordinate":{"longitude":38.199914399999997,"latitude":55.869944099999998}},{"address":"","sport":[{"sportAreaID":0,"sportType":{"id":1000221,"title":"Fitness"},"sportAreaType":"Fitness Pro","square":20,"sportArea":"Fitness Pro"}],"id":1000221,"availabilityType":"Шаговая доступность","title":"Fitness Pro","department":{"id":404404,"title":"Вне департамента"},"coordinate":{"longitude":37.594479,"latitude":55.889695000000003}},{"address":"","sport":[{"sportAreaID":0,"sportType":{"id":1000222,"title":"Skiing"},"sportAreaType":"Горнолыжная база \"Манихино\"","square":20,"sportArea":"Горнолыжная база \"Манихино\""}],"id":1000222,"availabilityType":"Шаговая доступность","title":"Горнолыжная база \"Манихино\"","department":{"id":404404,"title":"Вне департамента"},"coordinate":{"longitude":36.9403972,"latitude":55.880599199999999}},{"address":"","sport":[{"sportAreaID":0,"sportType":{"id":1000223,"title":"Fitness"},"sportAreaType":"Fitnessstation","square":20,"sportArea":"Fitnessstation"}],"id":1000223,"availabilityType":"Шаговая доступность","title":"Fitnessstation","department":{"id":404404,"title":"Вне департамента"},"coordinate":{"longitude":37.684654999999999,"latitude":55.868955}},{"address":"","sport":[{"sportAreaID":0,"sportType":{"id":1000225,"title":"Shooting"},"sportAreaType":"Стрелковый клуб \"Север\"","square":20,"sportArea":"Стрелковый клуб \"Север\""}],"id":1000225,"availabilityType":"Шаговая доступность","title":"Стрелковый клуб \"Север\"","department":{"id":404404,"title":"Вне департамента"},"coordinate":{"longitude":37.701740200000003,"latitude":55.876317499999999}},{"address":"","sport":[{"sportAreaID":0,"sportType":{"id":1000227,"title":"Fitness"},"sportAreaType":"Alex fitness","square":20,"sportArea":"Alex fitness"}],"id":1000227,"availabilityType":"Шаговая доступность","title":"Alex fitness","department":{"id":404404,"title":"Вне департамента"},"coordinate":{"longitude":37.422626000000001,"latitude":55.876527799999998}},{"address":"","sport":[{"sportAreaID":0,"sportType":{"id":1000228,"title":"Fitness"},"sportAreaType":"EMS studio","square":20,"sportArea":"EMS studio"}],"id":1000228,"availabilityType":"Шаговая доступность","title":"EMS studio","department":{"id":404404,"title":"Вне департамента"},"coordinate":{"longitude":37.411110700000002,"latitude":55.884641199999997}},{"address":"","sport":[{"sportAreaID":0,"sportType":{"id":1000229,"title":"Tennis"},"sportAreaType":"теннисный клуб «Эйс»","square":20,"sportArea":"теннисный клуб «Эйс»"}],"id":1000229,"availabilityType":"Шаговая доступность","title":"теннисный клуб «Эйс»","department":{"id":404404,"title":"Вне департамента"},"coordinate":{"longitude":37.504758099999997,"latitude":55.857558500000003}},{"address":"","sport":[{"sportAreaID":0,"sportType":{"id":1000232,"title":"Fitness"},"sportAreaType":"Fitnessstation","square":20,"sportArea":"Fitnessstation"}],"id":1000232,"availabilityType":"Шаговая доступность","title":"Fitnessstation","department":{"id":404404,"title":"Вне департамента"},"coordinate":{"longitude":37.697683400000003,"latitude":55.882945900000003}},{"address":"","sport":[{"sportAreaID":0,"sportType":{"id":1000234,"title":"Basketball"},"sportAreaType":"Pitch","square":20,"sportArea":"Pitch"}],"id":1000234,"availabilityType":"Шаговая доступность","title":"Pitch","department":{"id":404404,"title":"Вне департамента"},"coordinate":{"longitude":37.5085768,"latitude":55.864564000000001}},{"address":"","sport":[{"sportAreaID":0,"sportType":{"id":1000236,"title":"Fitness"},"sportAreaType":"Profistudio","square":20,"sportArea":"Profistudio"}],"id":1000236,"availabilityType":"Шаговая доступность","title":"Profistudio","department":{"id":404404,"title":"Вне департамента"},"coordinate":{"longitude":37.5899906,"latitude":55.876555600000003}},{"address":"","sport":[{"sportAreaID":0,"sportType":{"id":1000240,"title":"Fighting"},"sportAreaType":"World Fighting","square":20,"sportArea":"World Fighting"},{"sportAreaID":0,"sportType":{"id":1000240,"title":"Karate"},"sportAreaType":"World Fighting","square":20,"sportArea":"World Fighting"},{"sportAreaID":0,"sportType":{"id":1000240,"title":"Boxing"},"sportAreaType":"World Fighting","square":20,"sportArea":"World Fighting"},{"sportAreaID":0,"sportType":{"id":1000240,"title":"Crossfit"},"sportAreaType":"World Fighting","square":20,"sportArea":"World Fighting"},{"sportAreaID":0,"sportType":{"id":1000240,"title":"Jiu-jitsu"},"sportAreaType":"World Fighting","square":20,"sportArea":"World Fighting"}],"id":1000240,"availabilityType":"Шаговая доступность","title":"World Fighting","department":{"id":404404,"title":"Вне департамента"},"coordinate":{"longitude":37.314379500000001,"latitude":55.876386699999998}},{"address":"","sport":[{"sportAreaID":0,"sportType":{"id":1000241,"title":"Table tennis"},"sportAreaType":"Космик","square":20,"sportArea":"Космик"}],"id":1000241,"availabilityType":"Шаговая доступность","title":"Космик","department":{"id":404404,"title":"Вне департамента"},"coordinate":{"longitude":37.538074999999999,"latitude":55.889953300000002}},{"address":"","sport":[{"sportAreaID":0,"sportType":{"id":1000242,"title":"10pin"},"sportAreaType":"Космик","square":20,"sportArea":"Космик"}],"id":1000242,"availabilityType":"Шаговая доступность","title":"Космик","department":{"id":404404,"title":"Вне департамента"},"coordinate":{"longitude":37.538074999999999,"latitude":55.889920400000001}},{"address":"","sport":[{"sportAreaID":0,"sportType":{"id":1000243,"title":"Billiards"},"sportAreaType":"Космик","square":20,"sportArea":"Космик"}],"id":1000243,"availabilityType":"Шаговая доступность","title":"Космик","department":{"id":404404,"title":"Вне департамента"},"coordinate":{"longitude":37.538074999999999,"latitude":55.889890600000001}},{"address":"","sport":[{"sportAreaID":0,"sportType":{"id":1000245,"title":"Fitness"},"sportAreaType":"Fitnessstation","square":20,"sportArea":"Fitnessstation"}],"id":1000245,"availabilityType":"Шаговая доступность","title":"Fitnessstation","department":{"id":404404,"title":"Вне департамента"},"coordinate":{"longitude":37.451114500000003,"latitude":55.886882999999997}},{"address":"","sport":[{"sportAreaID":0,"sportType":{"id":1000246,"title":"Skiing"},"sportAreaType":"Горнолыжный клуб Astra","square":20,"sportArea":"Горнолыжный клуб Astra"}],"id":1000246,"availabilityType":"Шаговая доступность","title":"Горнолыжный клуб Astra","department":{"id":404404,"title":"Вне департамента"},"coordinate":{"longitude":36.936201500000003,"latitude":55.878452099999997}},{"address":"","sport":[{"sportAreaID":0,"sportType":{"id":1000247,"title":"Table tennis"},"sportAreaType":"Pitch","square":20,"sportArea":"Pitch"}],"id":1000247,"availabilityType":"Шаговая доступность","title":"Pitch","department":{"id":404404,"title":"Вне департамента"},"coordinate":{"longitude":37.4509677,"latitude":55.864235899999997}},{"address":"","sport":[{"sportAreaID":0,"sportType":{"id":1000248,"title":"Table tennis"},"sportAreaType":"Pitch","square":20,"sportArea":"Pitch"}],"id":1000248,"availabilityType":"Шаговая доступность","title":"Pitch","department":{"id":404404,"title":"Вне департамента"},"coordinate":{"longitude":37.450946899999998,"latitude":55.864198999999999}},{"address":"","sport":[{"sportAreaID":0,"sportType":{"id":1000249,"title":"Table tennis"},"sportAreaType":"Pitch","square":20,"sportArea":"Pitch"}],"id":1000249,"availabilityType":"Шаговая доступность","title":"Pitch","department":{"id":404404,"title":"Вне департамента"},"coordinate":{"longitude":37.450923699999997,"latitude":55.864162399999998}},{"address":"","sport":[{"sportAreaID":0,"sportType":{"id":1000250,"title":"Table tennis"},"sportAreaType":"Pitch","square":20,"sportArea":"Pitch"}],"id":1000250,"availabilityType":"Шаговая доступность","title":"Pitch","department":{"id":404404,"title":"Вне департамента"},"coordinate":{"longitude":37.450901299999998,"latitude":55.864125100000003}},{"address":"","sport":[{"sportAreaID":0,"sportType":{"id":1000251,"title":"Fitness"},"sportAreaType":"Fitnessstation","square":20,"sportArea":"Fitnessstation"}],"id":1000251,"availabilityType":"Шаговая доступность","title":"Fitnessstation","department":{"id":404404,"title":"Вне департамента"},"coordinate":{"longitude":37.655630799999997,"latitude":55.878157399999999}},{"address":"","sport":[{"sportAreaID":0,"sportType":{"id":1000252,"title":"Fitness"},"sportAreaType":"Avia_Gym","square":20,"sportArea":"Avia_Gym"},{"sportAreaID":0,"sportType":{"id":1000252,"title":"Gymnastics"},"sportAreaType":"Avia_Gym","square":20,"sportArea":"Avia_Gym"}],"id":1000252,"availabilityType":"Шаговая доступность","title":"Avia_Gym","department":{"id":404404,"title":"Вне департамента"},"coordinate":{"longitude":49.081158000000002,"latitude":55.865438300000001}},{"address":"","sport":[{"sportAreaID":0,"sportType":{"id":1000256,"title":"Multi"},"sportAreaType":"ФОК \"Лидер\"","square":20,"sportArea":"ФОК \"Лидер\""}],"id":1000256,"availabilityType":"Шаговая доступность","title":"ФОК \"Лидер\"","department":{"id":404404,"title":"Вне департамента"},"coordinate":{"longitude":38.779507000000002,"latitude":55.880161999999999}},{"address":"","sport":[{"sportAreaID":0,"sportType":{"id":1000257,"title":"Yoga"},"sportAreaType":"ParisLife","square":20,"sportArea":"ParisLife"},{"sportAreaID":0,"sportType":{"id":1000257,"title":"Athletics"},"sportAreaType":"ParisLife","square":20,"sportArea":"ParisLife"},{"sportAreaID":0,"sportType":{"id":1000257,"title":"Fitness"},"sportAreaType":"ParisLife","square":20,"sportArea":"ParisLife"}],"id":1000257,"availabilityType":"Шаговая доступность","title":"ParisLife","department":{"id":404404,"title":"Вне департамента"},"coordinate":{"longitude":37.495492599999999,"latitude":55.865920199999998}},{"address":"","sport":[{"sportAreaID":0,"sportType":{"id":1000258,"title":"Table tennis"},"sportAreaType":"Pitch","square":20,"sportArea":"Pitch"}],"id":1000258,"availabilityType":"Шаговая доступность","title":"Pitch","department":{"id":404404,"title":"Вне департамента"},"coordinate":{"longitude":37.727397699999997,"latitude":55.893839700000001}},{"address":"","sport":[{"sportAreaID":0,"sportType":{"id":1000262,"title":"Aikido"},"sportAreaType":"Школа айкидо","square":20,"sportArea":"Школа айкидо"}],"id":1000262,"availabilityType":"Шаговая доступность","title":"Школа айкидо","department":{"id":404404,"title":"Вне департамента"},"coordinate":{"longitude":37.629214599999997,"latitude":55.873947100000002}},{"address":"","sport":[{"sportAreaID":0,"sportType":{"id":1000263,"title":"Skateboard"},"sportAreaType":"Pitch","square":20,"sportArea":"Pitch"}],"id":1000263,"availabilityType":"Шаговая доступность","title":"Pitch","department":{"id":404404,"title":"Вне департамента"},"coordinate":{"longitude":37.599914099999999,"latitude":55.859932700000002}},{"address":"","sport":[{"sportAreaID":0,"sportType":{"id":1000265,"title":"Swimming"},"sportAreaType":"Sportscentre","square":20,"sportArea":"Sportscentre"}],"id":1000265,"availabilityType":"Шаговая доступность","title":"Sportscentre","department":{"id":404404,"title":"Вне департамента"},"coordinate":{"longitude":36.796390100000004,"latitude":55.8775963}},{"address":"","sport":[{"sportAreaID":0,"sportType":{"id":1000266,"title":"Swimming"},"sportAreaType":"Swimmingarea","square":20,"sportArea":"Swimmingarea"}],"id":1000266,"availabilityType":"Шаговая доступность","title":"Swimmingarea","department":{"id":404404,"title":"Вне департамента"},"coordinate":{"longitude":39.077274799999998,"latitude":55.8729108}},{"address":"","sport":[{"sportAreaID":0,"sportType":{"id":1000267,"title":"Swimming"},"sportAreaType":"Swimmingarea","square":20,"sportArea":"Swimmingarea"}],"id":1000267,"availabilityType":"Шаговая доступность","title":"Swimmingarea","department":{"id":404404,"title":"Вне департамента"},"coordinate":{"longitude":39.076534500000001,"latitude":55.873800099999997}},{"address":"","sport":[{"sportAreaID":0,"sportType":{"id":1000269,"title":"Fitness"},"sportAreaType":"Fitnessstation","square":20,"sportArea":"Fitnessstation"}],"id":1000269,"availabilityType":"Шаговая доступность","title":"Fitnessstation","department":{"id":404404,"title":"Вне департамента"},"coordinate":{"longitude":37.690196299999997,"latitude":55.880852300000001}},{"address":"","sport":[{"sportAreaID":0,"sportType":{"id":1000271,"title":"Pole dance"},"sportAreaType":"The Fox","square":20,"sportArea":"The Fox"}],"id":1000271,"availabilityType":"Шаговая доступность","title":"The Fox","department":{"id":404404,"title":"Вне департамента"},"coordinate":{"longitude":37.582132999999999,"latitude":55.867656599999997}},{"address":"","sport":[{"sportAreaID":0,"sportType":{"id":1000272,"title":"Table tennis"},"sportAreaType":"Pitch","square":20,"sportArea":"Pitch"}],"id":1000272,"availabilityType":"Шаговая доступность","title":"Pitch","department":{"id":404404,"title":"Вне департамента"},"coordinate":{"longitude":37.647713699999997,"latitude":55.864921699999996}},{"address":"","sport":[{"sportAreaID":0,"sportType":{"id":1000273,"title":"Table tennis"},"sportAreaType":"Pitch","square":20,"sportArea":"Pitch"}],"id":1000273,"availabilityType":"Шаговая доступность","title":"Pitch","department":{"id":404404,"title":"Вне департамента"},"coordinate":{"longitude":37.647758000000003,"latitude":55.864948800000001}},{"address":"","sport":[{"sportAreaID":0,"sportType":{"id":1000274,"title":"Fitness"},"sportAreaType":"Fitnessstation","square":20,"sportArea":"Fitnessstation"}],"id":1000274,"availabilityType":"Шаговая доступность","title":"Fitnessstation","department":{"id":404404,"title":"Вне департамента"},"coordinate":{"longitude":37.648004700000001,"latitude":55.865179099999999}},{"address":"","sport":[{"sportAreaID":0,"sportType":{"id":1000275,"title":"Equestrian"},"sportAreaType":"Zontrax","square":20,"sportArea":"Zontrax"}],"id":1000275,"availabilityType":"Шаговая доступность","title":"Zontrax","department":{"id":404404,"title":"Вне департамента"},"coordinate":{"longitude":37.305364599999997,"latitude":55.876604899999997}},{"address":"","sport":[{"sportAreaID":0,"sportType":{"id":1000276,"title":"Yoga"},"sportAreaType":"Yoga Sapiens","square":20,"sportArea":"Yoga Sapiens"}],"id":1000276,"availabilityType":"Шаговая доступность","title":"Yoga Sapiens","department":{"id":404404,"title":"Вне департамента"},"coordinate":{"longitude":37.328268000000001,"latitude":55.869748999999999}},{"address":"","sport":[{"sportAreaID":0,"sportType":{"id":1000277,"title":"Swimming"},"sportAreaType":"Детский аквацентр \"Буль-Буль\"","square":20,"sportArea":"Детский аквацентр \"Буль-Буль\""}],"id":1000277,"availabilityType":"Шаговая доступность","title":"Детский аквацентр \"Буль-Буль\"","department":{"id":404404,"title":"Вне департамента"},"coordinate":{"longitude":37.396933199999999,"latitude":55.893152299999997}},{"address":"","sport":[{"sportAreaID":0,"sportType":{"id":1000279,"title":"Skiing"},"sportAreaType":"Манская Петля","square":20,"sportArea":"Манская Петля"}],"id":1000279,"availabilityType":"Шаговая доступность","title":"Манская Петля","department":{"id":404404,"title":"Вне департамента"},"coordinate":{"longitude":92.523195999999999,"latitude":55.889802000000003}},{"address":"","sport":[{"sportAreaID":0,"sportType":{"id":1000280,"title":"Swimming"},"sportAreaType":"Плавательный бассейн Триумф","square":20,"sportArea":"Плавательный бассейн Триумф"}],"id":1000280,"availabilityType":"Шаговая доступность","title":"Плавательный бассейн Триумф","department":{"id":404404,"title":"Вне департамента"},"coordinate":{"longitude":49.093863300000002,"latitude":55.857069199999998}},{"address":"","sport":[{"sportAreaID":0,"sportType":{"id":1000281,"title":"Soccer"},"sportAreaType":"Pitch","square":20,"sportArea":"Pitch"}],"id":1000281,"availabilityType":"Шаговая доступность","title":"Pitch","department":{"id":404404,"title":"Вне департамента"},"coordinate":{"longitude":49.092947100000004,"latitude":55.868090199999997}},{"address":"","sport":[{"sportAreaID":0,"sportType":{"id":1000282,"title":"Fitness"},"sportAreaType":"Fitnessstation","square":20,"sportArea":"Fitnessstation"}],"id":1000282,"availabilityType":"Шаговая доступность","title":"Fitnessstation","department":{"id":404404,"title":"Вне департамента"},"coordinate":{"longitude":37.116458000000002,"latitude":55.881779199999997}},{"address":"","sport":[{"sportAreaID":0,"sportType":{"id":1000283,"title":"Fighting"},"sportAreaType":"Боевые панды","square":20,"sportArea":"Боевые панды"}],"id":1000283,"availabilityType":"Шаговая доступность","title":"Боевые панды","department":{"id":404404,"title":"Вне департамента"},"coordinate":{"longitude":37.326912100000001,"latitude":55.869830299999997}},{"address":"","sport":[{"sportAreaID":0,"sportType":{"id":1000284,"title":"Volleyball"},"sportAreaType":"Pitch","square":20,"sportArea":"Pitch"}],"id":1000284,"availabilityType":"Шаговая доступность","title":"Pitch","department":{"id":404404,"title":"Вне департамента"},"coordinate":{"longitude":37.804183100000003,"latitude":55.887641500000001}},{"address":"","sport":[{"sportAreaID":0,"sportType":{"id":1000285,"title":"Billiards"},"sportAreaType":"Trippledex","square":20,"sportArea":"Trippledex"}],"id":1000285,"availabilityType":"Шаговая доступность","title":"Trippledex","department":{"id":404404,"title":"Вне департамента"},"coordinate":{"longitude":48.372505099999998,"latitude":55.8616095}},{"address":"","sport":[{"sportAreaID":0,"sportType":{"id":1000291,"title":"Multi"},"sportAreaType":"Стадион летних видов спорта","square":20,"sportArea":"Стадион летних видов спорта"}],"id":1000291,"availabilityType":"Шаговая доступность","title":"Стадион летних видов спорта","department":{"id":404404,"title":"Вне департамента"},"coordinate":{"longitude":37.746036400000001,"latitude":55.909358099999999}},{"address":"","sport":[{"sportAreaID":0,"sportType":{"id":1000297,"title":"Fitness"},"sportAreaType":"Fitnessstation","square":20,"sportArea":"Fitnessstation"}],"id":1000297,"availabilityType":"Шаговая доступность","title":"Fitnessstation","department":{"id":404404,"title":"Вне департамента"},"coordinate":{"longitude":37.700272699999999,"latitude":55.903063199999998}},{"address":"","sport":[{"sportAreaID":0,"sportType":{"id":1000300,"title":"Skateboard"},"sportAreaType":"Pitch","square":20,"sportArea":"Pitch"}],"id":1000300,"availabilityType":"Шаговая доступность","title":"Pitch","department":{"id":404404,"title":"Вне департамента"},"coordinate":{"longitude":37.572343799999999,"latitude":55.8993222}},{"address":"","sport":[{"sportAreaID":0,"sportType":{"id":1000301,"title":"Skateboard"},"sportAreaType":"Pitch","square":20,"sportArea":"Pitch"}],"id":1000301,"availabilityType":"Шаговая доступность","title":"Pitch","department":{"id":404404,"title":"Вне департамента"},"coordinate":{"longitude":37.572910299999997,"latitude":55.899109299999999}},{"address":"","sport":[{"sportAreaID":0,"sportType":{"id":1000302,"title":"Skateboard"},"sportAreaType":"Pitch","square":20,"sportArea":"Pitch"}],"id":1000302,"availabilityType":"Шаговая доступность","title":"Pitch","department":{"id":404404,"title":"Вне департамента"},"coordinate":{"longitude":37.572677599999999,"latitude":55.898887999999999}},{"address":"","sport":[{"sportAreaID":0,"sportType":{"id":1000305,"title":"Athletics"},"sportAreaType":"Sportscentre","square":20,"sportArea":"Sportscentre"}],"id":1000305,"availabilityType":"Шаговая доступность","title":"Sportscentre","department":{"id":404404,"title":"Вне департамента"},"coordinate":{"longitude":36.886625500000001,"latitude":55.911670200000003}},{"address":"","sport":[{"sportAreaID":0,"sportType":{"id":1000306,"title":"Athletics"},"sportAreaType":"Sportscentre","square":20,"sportArea":"Sportscentre"}],"id":1000306,"availabilityType":"Шаговая доступность","title":"Sportscentre","department":{"id":404404,"title":"Вне департамента"},"coordinate":{"longitude":36.887154500000001,"latitude":55.9115222}},{"address":"","sport":[{"sportAreaID":0,"sportType":{"id":1000307,"title":"Fitness"},"sportAreaType":"Paris Life","square":20,"sportArea":"Paris Life"}],"id":1000307,"availabilityType":"Шаговая доступность","title":"Paris Life","department":{"id":404404,"title":"Вне департамента"},"coordinate":{"longitude":37.547514499999998,"latitude":55.8792598}},{"address":"","sport":[{"sportAreaID":0,"sportType":{"id":1000318,"title":"Fitness"},"sportAreaType":"Fitnessstation","square":20,"sportArea":"Fitnessstation"}],"id":1000318,"availabilityType":"Шаговая доступность","title":"Fitnessstation","department":{"id":404404,"title":"Вне департамента"},"coordinate":{"longitude":37.478127299999997,"latitude":55.899132899999998}},{"address":"","sport":[{"sportAreaID":0,"sportType":{"id":1000323,"title":"Gymnastics"},"sportAreaType":"Центр художественной гимнастики И.А. Винер-Усмановой","square":20,"sportArea":"Центр художественной гимнастики И.А. Винер-Усмановой"}],"id":1000323,"availabilityType":"Шаговая доступность","title":"Центр художественной гимнастики И.А. Винер-Усмановой","department":{"id":404404,"title":"Вне департамента"},"coordinate":{"longitude":37.360022700000002,"latitude":55.903474799999998}},{"address":"","sport":[{"sportAreaID":0,"sportType":{"id":1000325,"title":"Shooting"},"sportAreaType":"Калибр","square":20,"sportArea":"Калибр"}],"id":1000325,"availabilityType":"Шаговая доступность","title":"Калибр","department":{"id":404404,"title":"Вне департамента"},"coordinate":{"longitude":37.778753000000002,"latitude":55.9087265}},{"address":"","sport":[{"sportAreaID":0,"sportType":{"id":1000327,"title":"Table tennis"},"sportAreaType":"Pitch","square":20,"sportArea":"Pitch"}],"id":1000327,"availabilityType":"Шаговая доступность","title":"Pitch","department":{"id":404404,"title":"Вне департамента"},"coordinate":{"longitude":37.866195699999999,"latitude":55.905059399999999}},{"address":"","sport":[{"sportAreaID":0,"sportType":{"id":1000328,"title":"Table tennis"},"sportAreaType":"Pitch","square":20,"sportArea":"Pitch"}],"id":1000328,"availabilityType":"Шаговая доступность","title":"Pitch","department":{"id":404404,"title":"Вне департамента"},"coordinate":{"longitude":37.865911400000002,"latitude":55.904546099999997}},{"address":"","sport":[{"sportAreaID":0,"sportType":{"id":1000329,"title":"Table tennis"},"sportAreaType":"Pitch","square":20,"sportArea":"Pitch"}],"id":1000329,"availabilityType":"Шаговая доступность","title":"Pitch","department":{"id":404404,"title":"Вне департамента"},"coordinate":{"longitude":37.865916800000001,"latitude":55.904599500000003}},{"address":"","sport":[{"sportAreaID":0,"sportType":{"id":1000335,"title":"Fitness"},"sportAreaType":"FIZO","square":20,"sportArea":"FIZO"}],"id":1000335,"availabilityType":"Шаговая доступность","title":"FIZO","department":{"id":404404,"title":"Вне департамента"},"coordinate":{"longitude":38.144668000000003,"latitude":55.900201299999999}},{"address":"","sport":[{"sportAreaID":0,"sportType":{"id":1000336,"title":"Fitness"},"sportAreaType":"Fitnesscentre","square":20,"sportArea":"Fitnesscentre"}],"id":1000336,"availabilityType":"Шаговая доступность","title":"Fitnesscentre","department":{"id":404404,"title":"Вне департамента"},"coordinate":{"longitude":37.829458899999999,"latitude":55.909945}},{"address":"","sport":[{"sportAreaID":0,"sportType":{"id":1000337,"title":"Horse racing"},"sportAreaType":"конюшня","square":20,"sportArea":"конюшня"}],"id":1000337,"availabilityType":"Шаговая доступность","title":"конюшня","department":{"id":404404,"title":"Вне департамента"},"coordinate":{"longitude":38.010286999999998,"latitude":55.6490139}},{"address":"","sport":[{"sportAreaID":0,"sportType":{"id":1000339,"title":"Fitness"},"sportAreaType":"Планета фитнес","square":20,"sportArea":"Планета фитнес"}],"id":1000339,"availabilityType":"Шаговая доступность","title":"Планета фитнес","department":{"id":404404,"title":"Вне департамента"},"coordinate":{"longitude":37.741523399999998,"latitude":55.658933300000001}},{"address":"","sport":[{"sportAreaID":0,"sportType":{"id":1000346,"title":"Swimming"},"sportAreaType":"Sportscentre","square":20,"sportArea":"Sportscentre"}],"id":1000346,"availabilityType":"Шаговая доступность","title":"Sportscentre","department":{"id":404404,"title":"Вне департамента"},"coordinate":{"longitude":37.739904799999998,"latitude":55.654748699999999}},{"address":"","sport":[{"sportAreaID":0,"sportType":{"id":1000348,"title":"Athletics"},"sportAreaType":"Эстетик-сити","square":20,"sportArea":"Эстетик-сити"}],"id":1000348,"availabilityType":"Шаговая доступность","title":"Эстетик-сити","department":{"id":404404,"title":"Вне департамента"},"coordinate":{"longitude":51.812885799999997,"latitude":55.643926200000003}},{"address":"","sport":[{"sportAreaID":0,"sportType":{"id":1000350,"title":"Fitness"},"sportAreaType":"Пойнт фитнес","square":20,"sportArea":"Пойнт фитнес"}],"id":1000350,"availabilityType":"Шаговая доступность","title":"Пойнт фитнес","department":{"id":404404,"title":"Вне департамента"},"coordinate":{"longitude":37.473132900000003,"latitude":55.655287800000004}},{"address":"","sport":[{"sportAreaID":0,"sportType":{"id":1000352,"title":"Fighting"},"sportAreaType":"Академия Единоборств","square":20,"sportArea":"Академия Единоборств"}],"id":1000352,"availabilityType":"Шаговая доступность","title":"Академия Единоборств","department":{"id":404404,"title":"Вне департамента"},"coordinate":{"longitude":37.745749099999998,"latitude":55.647270599999999}},{"address":"","sport":[{"sportAreaID":0,"sportType":{"id":1000353,"title":"Swimming"},"sportAreaType":"Sportscentre","square":20,"sportArea":"Sportscentre"}],"id":1000353,"availabilityType":"Шаговая доступность","title":"Sportscentre","department":{"id":404404,"title":"Вне департамента"},"coordinate":{"longitude":49.2206513,"latitude":55.656103700000003}},{"address":"","sport":[{"sportAreaID":0,"sportType":{"id":1000354,"title":"Soccer"},"sportAreaType":"Pitch","square":20,"sportArea":"Pitch"}],"id":1000354,"availabilityType":"Шаговая доступность","title":"Pitch","department":{"id":404404,"title":"Вне департамента"},"coordinate":{"longitude":37.929908500000003,"latitude":55.655544800000001}},{"address":"","sport":[{"sportAreaID":0,"sportType":{"id":1000356,"title":"Swimming"},"sportAreaType":"Sportscentre","square":20,"sportArea":"Sportscentre"}],"id":1000356,"availabilityType":"Шаговая доступность","title":"Sportscentre","department":{"id":404404,"title":"Вне департамента"},"coordinate":{"longitude":49.222638500000002,"latitude":55.650219200000002}},{"address":"","sport":[{"sportAreaID":0,"sportType":{"id":1000357,"title":"Swimming"},"sportAreaType":"Sportscentre","square":20,"sportArea":"Sportscentre"}],"id":1000357,"availabilityType":"Шаговая доступность","title":"Sportscentre","department":{"id":404404,"title":"Вне департамента"},"coordinate":{"longitude":49.222955599999999,"latitude":55.650326999999997}},{"address":"","sport":[{"sportAreaID":0,"sportType":{"id":1000358,"title":"Gymnastics"},"sportAreaType":"Акробат","square":20,"sportArea":"Акробат"}],"id":1000358,"availabilityType":"Шаговая доступность","title":"Акробат","department":{"id":404404,"title":"Вне департамента"},"coordinate":{"longitude":37.731078099999998,"latitude":55.655441000000003}},{"address":"","sport":[{"sportAreaID":0,"sportType":{"id":1000359,"title":"Boxing"},"sportAreaType":"Белый Лотос","square":20,"sportArea":"Белый Лотос"},{"sportAreaID":0,"sportType":{"id":1000359,"title":"Taekwondo"},"sportAreaType":"Белый Лотос","square":20,"sportArea":"Белый Лотос"},{"sportAreaID":0,"sportType":{"id":1000359,"title":"Kickboxing"},"sportAreaType":"Белый Лотос","square":20,"sportArea":"Белый Лотос"},{"sportAreaID":0,"sportType":{"id":1000359,"title":"Judo"},"sportAreaType":"Белый Лотос","square":20,"sportArea":"Белый Лотос"},{"sportAreaID":0,"sportType":{"id":1000359,"title":"Jiu-jitsu"},"sportAreaType":"Белый Лотос","square":20,"sportArea":"Белый Лотос"},{"sportAreaID":0,"sportType":{"id":1000359,"title":"Crossfit"},"sportAreaType":"Белый Лотос","square":20,"sportArea":"Белый Лотос"}],"id":1000359,"availabilityType":"Шаговая доступность","title":"Белый Лотос","department":{"id":404404,"title":"Вне департамента"},"coordinate":{"longitude":37.487383100000002,"latitude":55.658854400000003}},{"address":"","sport":[{"sportAreaID":0,"sportType":{"id":1000360,"title":"Paddle tennis"},"sportAreaType":"Tin","square":20,"sportArea":"Tin"}],"id":1000360,"availabilityType":"Шаговая доступность","title":"Tin","department":{"id":404404,"title":"Вне департамента"},"coordinate":{"longitude":37.779594500000002,"latitude":55.654841400000002}},{"address":"","sport":[{"sportAreaID":0,"sportType":{"id":1000361,"title":"Soccer"},"sportAreaType":"Temp","square":20,"sportArea":"Temp"}],"id":1000361,"availabilityType":"Шаговая доступность","title":"Temp","department":{"id":404404,"title":"Вне департамента"},"coordinate":{"longitude":37.779303800000001,"latitude":55.65578}},{"address":"","sport":[{"sportAreaID":0,"sportType":{"id":1000362,"title":"Paddle tennis"},"sportAreaType":"Biodex","square":20,"sportArea":"Biodex"}],"id":1000362,"availabilityType":"Шаговая доступность","title":"Biodex","department":{"id":404404,"title":"Вне департамента"},"coordinate":{"longitude":37.779316600000001,"latitude":55.656623699999997}},{"address":"","sport":[{"sportAreaID":0,"sportType":{"id":1000363,"title":"Soccer"},"sportAreaType":"Rank","square":20,"sportArea":"Rank"}],"id":1000363,"availabilityType":"Шаговая доступность","title":"Rank","department":{"id":404404,"title":"Вне департамента"},"coordinate":{"longitude":37.780074200000001,"latitude":55.658726399999999}},{"address":"","sport":[{"sportAreaID":0,"sportType":{"id":1000364,"title":"Beachvolleyball"},"sportAreaType":"Transcof","square":20,"sportArea":"Transcof"}],"id":1000364,"availabilityType":"Шаговая доступность","title":"Transcof","department":{"id":404404,"title":"Вне департамента"},"coordinate":{"longitude":37.779581399999998,"latitude":55.6544679}},{"address":"","sport":[{"sportAreaID":0,"sportType":{"id":1000365,"title":"Badminton"},"sportAreaType":"Lotstring","square":20,"sportArea":"Lotstring"}],"id":1000365,"availabilityType":"Шаговая доступность","title":"Lotstring","department":{"id":404404,"title":"Вне департамента"},"coordinate":{"longitude":37.7792502,"latitude":55.6554304}},{"address":"","sport":[{"sportAreaID":0,"sportType":{"id":1000366,"title":"Tennis"},"sportAreaType":"Toughjoyfax","square":20,"sportArea":"Toughjoyfax"}],"id":1000366,"availabilityType":"Шаговая доступность","title":"Toughjoyfax","department":{"id":404404,"title":"Вне департамента"},"coordinate":{"longitude":37.779330399999999,"latitude":55.656338900000002}},{"address":"","sport":[{"sportAreaID":0,"sportType":{"id":1000367,"title":"Soccer"},"sportAreaType":"Keylex","square":20,"sportArea":"Keylex"}],"id":1000367,"availabilityType":"Шаговая доступность","title":"Keylex","department":{"id":404404,"title":"Вне департамента"},"coordinate":{"longitude":37.780455000000003,"latitude":55.659077600000003}},{"address":"","sport":[{"sportAreaID":0,"sportType":{"id":1000368,"title":"Fitness"},"sportAreaType":"Fitnessstation","square":20,"sportArea":"Fitnessstation"}],"id":1000368,"availabilityType":"Шаговая доступность","title":"Fitnessstation","department":{"id":404404,"title":"Вне департамента"},"coordinate":{"longitude":37.753154500000001,"latitude":55.655273999999999}},{"address":"","sport":[{"sportAreaID":0,"sportType":{"id":1000369,"title":"Athletics"},"sportAreaType":"World Class","square":20,"sportArea":"World Class"},{"sportAreaID":0,"sportType":{"id":1000369,"title":"Exercise"},"sportAreaType":"World Class","square":20,"sportArea":"World Class"},{"sportAreaID":0,"sportType":{"id":1000369,"title":"Fitness"},"sportAreaType":"World Class","square":20,"sportArea":"World Class"},{"sportAreaID":0,"sportType":{"id":1000369,"title":"Gymnastics"},"sportAreaType":"World Class","square":20,"sportArea":"World Class"},{"sportAreaID":0,"sportType":{"id":1000369,"title":"Multi"},"sportAreaType":"World Class","square":20,"sportArea":"World Class"},{"sportAreaID":0,"sportType":{"id":1000369,"title":"Table tennis"},"sportAreaType":"World Class","square":20,"sportArea":"World Class"},{"sportAreaID":0,"sportType":{"id":1000369,"title":"Yoga"},"sportAreaType":"World Class","square":20,"sportArea":"World Class"}],"id":1000369,"availabilityType":"Шаговая доступность","title":"World Class","department":{"id":404404,"title":"Вне департамента"},"coordinate":{"longitude":37.512007500000003,"latitude":55.664314900000001}},{"address":"","sport":[{"sportAreaID":0,"sportType":{"id":1000370,"title":"Athletics"},"sportAreaType":"World Class","square":20,"sportArea":"World Class"},{"sportAreaID":0,"sportType":{"id":1000370,"title":"Exercise"},"sportAreaType":"World Class","square":20,"sportArea":"World Class"},{"sportAreaID":0,"sportType":{"id":1000370,"title":"Fitness"},"sportAreaType":"World Class","square":20,"sportArea":"World Class"},{"sportAreaID":0,"sportType":{"id":1000370,"title":"Gymnastics"},"sportAreaType":"World Class","square":20,"sportArea":"World Class"},{"sportAreaID":0,"sportType":{"id":1000370,"title":"Multi"},"sportAreaType":"World Class","square":20,"sportArea":"World Class"},{"sportAreaID":0,"sportType":{"id":1000370,"title":"Swimming"},"sportAreaType":"World Class","square":20,"sportArea":"World Class"},{"sportAreaID":0,"sportType":{"id":1000370,"title":"Table tennis"},"sportAreaType":"World Class","square":20,"sportArea":"World Class"},{"sportAreaID":0,"sportType":{"id":1000370,"title":"Yoga"},"sportAreaType":"World Class","square":20,"sportArea":"World Class"}],"id":1000370,"availabilityType":"Шаговая доступность","title":"World Class","department":{"id":404404,"title":"Вне департамента"},"coordinate":{"longitude":37.486754900000001,"latitude":55.665847499999998}},{"address":"","sport":[{"sportAreaID":0,"sportType":{"id":1000371,"title":"Fitness"},"sportAreaType":"World Class","square":20,"sportArea":"World Class"}],"id":1000371,"availabilityType":"Шаговая доступность","title":"World Class","department":{"id":404404,"title":"Вне департамента"},"coordinate":{"longitude":37.549818500000001,"latitude":55.663562300000002}},{"address":"","sport":[{"sportAreaID":0,"sportType":{"id":1000373,"title":"Fitness"},"sportAreaType":"Fitnessstation","square":20,"sportArea":"Fitnessstation"}],"id":1000373,"availabilityType":"Шаговая доступность","title":"Fitnessstation","department":{"id":404404,"title":"Вне департамента"},"coordinate":{"longitude":37.526328900000003,"latitude":55.647005999999998}},{"address":"","sport":[{"sportAreaID":0,"sportType":{"id":1000374,"title":"Volleyball"},"sportAreaType":"Pitch","square":20,"sportArea":"Pitch"}],"id":1000374,"availabilityType":"Шаговая доступность","title":"Pitch","department":{"id":404404,"title":"Вне департамента"},"coordinate":{"longitude":36.818817299999999,"latitude":55.659133799999999}},{"address":"","sport":[{"sportAreaID":0,"sportType":{"id":1000375,"title":"Volleyball"},"sportAreaType":"Pitch","square":20,"sportArea":"Pitch"}],"id":1000375,"availabilityType":"Шаговая доступность","title":"Pitch","department":{"id":404404,"title":"Вне департамента"},"coordinate":{"longitude":36.816660800000001,"latitude":55.6564646}},{"address":"","sport":[{"sportAreaID":0,"sportType":{"id":1000376,"title":"Fitness"},"sportAreaType":"Fitnessstation","square":20,"sportArea":"Fitnessstation"}],"id":1000376,"availabilityType":"Шаговая доступность","title":"Fitnessstation","department":{"id":404404,"title":"Вне департамента"},"coordinate":{"longitude":38.003214399999997,"latitude":55.661542599999997}},{"address":"","sport":[],"id":1000377,"availabilityType":"Шаговая доступность","title":"АСК \"Аэроклассика\"","department":{"id":404404,"title":"Вне департамента"},"coordinate":{"longitude":36.142193499999998,"latitude":55.662257799999999}},{"address":"","sport":[{"sportAreaID":0,"sportType":{"id":1000378,"title":"Fitness"},"sportAreaType":"X-Fit Довиль","square":20,"sportArea":"X-Fit Довиль"}],"id":1000378,"availabilityType":"Шаговая доступность","title":"X-Fit Довиль","department":{"id":404404,"title":"Вне департамента"},"coordinate":{"longitude":37.251815000000001,"latitude":55.656339199999998}},{"address":"","sport":[{"sportAreaID":0,"sportType":{"id":1000379,"title":"Motor"},"sportAreaType":"Мотоклуб Курьяново","square":20,"sportArea":"Мотоклуб Курьяново"}],"id":1000379,"availabilityType":"Шаговая доступность","title":"Мотоклуб Курьяново","department":{"id":404404,"title":"Вне департамента"},"coordinate":{"longitude":37.697064400000002,"latitude":55.653484200000001}},{"address":"","sport":[{"sportAreaID":0,"sportType":{"id":1000381,"title":"Fighting"},"sportAreaType":"Золотой Витязь","square":20,"sportArea":"Золотой Витязь"}],"id":1000381,"availabilityType":"Шаговая доступность","title":"Золотой Витязь","department":{"id":404404,"title":"Вне департамента"},"coordinate":{"longitude":37.524463799999999,"latitude":55.658312600000002}},{"address":"","sport":[{"sportAreaID":0,"sportType":{"id":1000382,"title":"Swimming"},"sportAreaType":"Дельфин","square":20,"sportArea":"Дельфин"}],"id":1000382,"availabilityType":"Шаговая доступность","title":"Дельфин","department":{"id":404404,"title":"Вне департамента"},"coordinate":{"longitude":37.662882400000001,"latitude":55.644357800000002}},{"address":"","sport":[{"sportAreaID":0,"sportType":{"id":1000415,"title":"Fitness"},"sportAreaType":"Физика","square":20,"sportArea":"Физика"}],"id":1000415,"availabilityType":"Шаговая доступность","title":"Физика","department":{"id":404404,"title":"Вне департамента"},"coordinate":{"longitude":37.9763321,"latitude":55.794512099999999}},{"address":"","sport":[{"sportAreaID":0,"sportType":{"id":1000416,"title":"Skiing"},"sportAreaType":"Ювента Спорт","square":20,"sportArea":"Ювента Спорт"}],"id":1000416,"availabilityType":"Шаговая доступность","title":"Ювента Спорт","department":{"id":404404,"title":"Вне департамента"},"coordinate":{"longitude":37.4683645,"latitude":55.799123899999998}},{"address":"","sport":[{"sportAreaID":0,"sportType":{"id":1000418,"title":"Swimming"},"sportAreaType":"Бассейн «Фитнес Стар»","square":20,"sportArea":"Бассейн «Фитнес Стар»"}],"id":1000418,"availabilityType":"Шаговая доступность","title":"Бассейн «Фитнес Стар»","department":{"id":404404,"title":"Вне департамента"},"coordinate":{"longitude":37.973139400000001,"latitude":55.799387099999997}},{"address":"","sport":[{"sportAreaID":0,"sportType":{"id":1000420,"title":"Chess"},"sportAreaType":"Диагональ","square":20,"sportArea":"Диагональ"}],"id":1000420,"availabilityType":"Шаговая доступность","title":"Диагональ","department":{"id":404404,"title":"Вне департамента"},"coordinate":{"longitude":38.461858900000003,"latitude":55.7982552}},{"address":"","sport":[{"sportAreaID":0,"sportType":{"id":1000421,"title":"Swimming"},"sportAreaType":"Нептун","square":20,"sportArea":"Нептун"}],"id":1000421,"availabilityType":"Шаговая доступность","title":"Нептун","department":{"id":404404,"title":"Вне департамента"},"coordinate":{"longitude":37.9310805,"latitude":55.791873799999998}},{"address":"","sport":[{"sportAreaID":0,"sportType":{"id":1000425,"title":"Fitness"},"sportAreaType":"Fitnessstation","square":20,"sportArea":"Fitnessstation"}],"id":1000425,"availabilityType":"Шаговая доступность","title":"Fitnessstation","department":{"id":404404,"title":"Вне департамента"},"coordinate":{"longitude":37.695574899999997,"latitude":55.797753299999997}},{"address":"","sport":[{"sportAreaID":0,"sportType":{"id":1000427,"title":"Crossfit"},"sportAreaType":"CrossFit Bayard","square":20,"sportArea":"CrossFit Bayard"}],"id":1000427,"availabilityType":"Шаговая доступность","title":"CrossFit Bayard","department":{"id":404404,"title":"Вне департамента"},"coordinate":{"longitude":37.713077200000001,"latitude":55.794275399999997}},{"address":"","sport":[{"sportAreaID":0,"sportType":{"id":1000428,"title":"Water ski"},"sportAreaType":"Malibu Club","square":20,"sportArea":"Malibu Club"}],"id":1000428,"availabilityType":"Шаговая доступность","title":"Malibu Club","department":{"id":404404,"title":"Вне департамента"},"coordinate":{"longitude":37.448051,"latitude":55.8049903}},{"address":"","sport":[{"sportAreaID":0,"sportType":{"id":1000429,"title":"Table tennis"},"sportAreaType":"Pitch","square":20,"sportArea":"Pitch"}],"id":1000429,"availabilityType":"Шаговая доступность","title":"Pitch","department":{"id":404404,"title":"Вне департамента"},"coordinate":{"longitude":37.982541900000001,"latitude":55.794258599999999}},{"address":"","sport":[{"sportAreaID":0,"sportType":{"id":1000430,"title":"Table tennis"},"sportAreaType":"Pitch","square":20,"sportArea":"Pitch"}],"id":1000430,"availabilityType":"Шаговая доступность","title":"Pitch","department":{"id":404404,"title":"Вне департамента"},"coordinate":{"longitude":37.976047600000001,"latitude":55.791820700000002}},{"address":"","sport":[{"sportAreaID":0,"sportType":{"id":1000431,"title":"Table tennis"},"sportAreaType":"Pitch","square":20,"sportArea":"Pitch"}],"id":1000431,"availabilityType":"Шаговая доступность","title":"Pitch","department":{"id":404404,"title":"Вне департамента"},"coordinate":{"longitude":37.976003400000003,"latitude":55.791892900000001}},{"address":"","sport":[{"sportAreaID":0,"sportType":{"id":1000432,"title":"Table tennis"},"sportAreaType":"артТТ","square":20,"sportArea":"артТТ"}],"id":1000432,"availabilityType":"Шаговая доступность","title":"артТТ","department":{"id":404404,"title":"Вне департамента"},"coordinate":{"longitude":37.711229699999997,"latitude":55.796757200000002}},{"address":"","sport":[{"sportAreaID":0,"sportType":{"id":1000434,"title":"Fitness"},"sportAreaType":"World Class","square":20,"sportArea":"World Class"}],"id":1000434,"availabilityType":"Шаговая доступность","title":"World Class","department":{"id":404404,"title":"Вне департамента"},"coordinate":{"longitude":37.390815699999997,"latitude":55.803226500000001}},{"address":"","sport":[{"sportAreaID":0,"sportType":{"id":1000436,"title":"Fitness"},"sportAreaType":"Fit'n'Go Балашиха","square":20,"sportArea":"Fit'n'Go Балашиха"}],"id":1000436,"availabilityType":"Шаговая доступность","title":"Fit'n'Go Балашиха","department":{"id":404404,"title":"Вне департамента"},"coordinate":{"longitude":37.939063400000002,"latitude":55.7988559}},{"address":"","sport":[],"id":1000439,"availabilityType":"Шаговая доступность","title":"Moscow Wake School","department":{"id":404404,"title":"Вне департамента"},"coordinate":{"longitude":37.427213000000002,"latitude":55.804233799999999}},{"address":"","sport":[{"sportAreaID":0,"sportType":{"id":1000441,"title":"Table tennis"},"sportAreaType":"Pitch","square":20,"sportArea":"Pitch"}],"id":1000441,"availabilityType":"Шаговая доступность","title":"Pitch","department":{"id":404404,"title":"Вне департамента"},"coordinate":{"longitude":37.962317900000002,"latitude":55.797946000000003}},{"address":"","sport":[{"sportAreaID":0,"sportType":{"id":1000442,"title":"Gymnastics"},"sportAreaType":"ДЮСШ по спортивной гимнастике","square":20,"sportArea":"ДЮСШ по спортивной гимнастике"}],"id":1000442,"availabilityType":"Шаговая доступность","title":"ДЮСШ по спортивной гимнастике","department":{"id":404404,"title":"Вне департамента"},"coordinate":{"longitude":49.129354399999997,"latitude":55.7941827}},{"address":"","sport":[{"sportAreaID":0,"sportType":{"id":1000443,"title":"Athletics"},"sportAreaType":"СДЮСШОР по легкой атлетике","square":20,"sportArea":"СДЮСШОР по легкой атлетике"}],"id":1000443,"availabilityType":"Шаговая доступность","title":"СДЮСШОР по легкой атлетике","department":{"id":404404,"title":"Вне департамента"},"coordinate":{"longitude":49.097839499999999,"latitude":55.796809099999997}},{"address":"","sport":[{"sportAreaID":0,"sportType":{"id":1000444,"title":"Exercise"},"sportAreaType":"Fitnessstation","square":20,"sportArea":"Fitnessstation"}],"id":1000444,"availabilityType":"Шаговая доступность","title":"Fitnessstation","department":{"id":404404,"title":"Вне департамента"},"coordinate":{"longitude":37.6617788,"latitude":55.797218399999998}},{"address":"","sport":[{"sportAreaID":0,"sportType":{"id":1000445,"title":"Exercise"},"sportAreaType":"Fitnessstation","square":20,"sportArea":"Fitnessstation"}],"id":1000445,"availabilityType":"Шаговая доступность","title":"Fitnessstation","department":{"id":404404,"title":"Вне департамента"},"coordinate":{"longitude":37.665896500000002,"latitude":55.802727099999998}},{"address":"","sport":[{"sportAreaID":0,"sportType":{"id":1000446,"title":"Exercise"},